month,latitude,longitude,category,municipality,district,state,issue_count
2023-01,47.65278377689462,11.824148273680342,Verkehr,Rottach-Egern,Gemeinde,Bayern,1
2023-01,47.76887882344342,12.76797285598642,Digitalisierung,Inzell,Gemeinde,Bayern,1
2023-01,47.821975194808665,10.581021359296413,Digitalisierung,Ruderatshofen,Gemeinde,Bayern,1
2023-01,48.39251778064585,11.725764188298072,Migration,Freising,Stadt,Bayern,1
2023-01,48.58769696204703,9.899052815278525,Migration,Amstetten,Gemeinde,Baden-Württemberg,1
2023-01,48.9698599911821,13.121773878966868,Gesundheit,Regen,Stadt,Bayern,1
2023-01,49.01399778579777,11.49478269613124,Gesundheit,Beilngries,Stadt,Bayern,1
2023-01,49.03543851501923,8.19224636772626,Bildung,Wörth am Rhein,Stadt,Rheinland-Pfalz,1
2023-01,49.218430168547584,9.596369734106569,Verkehr,Neuenstein,Stadt,Baden-Württemberg,1
2023-01,49.72055356331014,11.063382153473851,Bildung,Forchheim,Stadt,Bayern,1
2023-01,49.84895198981001,7.4073891522161714,Verkehr,Schneppenbach,Gemeinde,Rheinland-Pfalz,1
2023-01,49.92509666388112,10.63173854678462,Verkehr,Oberaurach,Gemeinde,Bayern,1
2023-01,49.94954112385809,8.008665623825934,Migration,Gau-Algesheim,Stadt,Rheinland-Pfalz,1
2023-01,50.13793099172263,10.535420434086124,Verkehr,Hofheim i.UFr.,Stadt,Bayern,1
2023-01,50.56108598750108,11.797189427135194,Bildung,Schleiz,Stadt,Thüringen,1
2023-01,50.74235399964574,6.605255388114447,Umwelt,Vettweiß,Gemeinde,Nordrhein-Westfalen,1
2023-01,50.74387813795848,10.814692995735935,Umwelt,Geratal,Gemeinde,Thüringen,1
2023-01,50.8263870755197,9.822578352049211,Digitalisierung,Schenklengsfeld,Gemeinde,Hessen,1
2023-01,50.83375201463879,7.949783160144485,Sicherheit,Mudersbach,Gemeinde,Rheinland-Pfalz,1
2023-01,51.078370018908736,12.215549260209938,Wirtschaft,Elsteraue,Gemeinde,Sachsen-Anhalt,1
2023-01,51.09943910953353,13.306520664050622,Migration,Nossen,Stadt,Sachsen,1
2023-01,51.10896278644419,11.144695501158864,Digitalisierung,Schloßvippach,Gemeinde,Thüringen,1
2023-01,51.18594370441746,14.202997703875424,Wirtschaft,Burkau,Gemeinde,Sachsen,1
2023-01,51.21120352738589,11.86761417677092,Umwelt,Goseck,Gemeinde,Sachsen-Anhalt,1
2023-01,51.339963181587336,9.827882967746287,Migration,Witzenhausen,Stadt,Hessen,1
2023-01,51.42820046819583,7.330913330569456,Verkehr,Witten,Stadt,Nordrhein-Westfalen,1
2023-01,51.51931764695518,11.568404971945034,Digitalisierung,Eisleben,Stadt,Sachsen-Anhalt,1
2023-01,51.5323565189331,11.77874447852461,Migration,Salzatal,Gemeinde,Sachsen-Anhalt,1
2023-01,51.61493201319336,6.376140951421112,Verkehr,Sonsbeck,Gemeinde,Nordrhein-Westfalen,1
2023-01,52.00722971327189,10.120535610623453,Verkehr,Bockenem,Stadt,Niedersachsen,1
2023-01,52.02446173812607,9.408123363553946,Bildung,Emmerthal,Gemeinde,Niedersachsen,1
2023-01,52.07792745746266,7.970992457780647,Gesundheit,Glandorf,Gemeinde,Niedersachsen,1
2023-01,52.297262983952365,7.257157786723539,Umwelt,Samern,Gemeinde,Niedersachsen,1
2023-01,52.5017833409084,13.401154893793652,Gesundheit,Berlin,Stadt,Berlin,1
2023-01,52.61817430421235,12.828778485653569,Digitalisierung,Nauen,Stadt,Brandenburg,1
2023-01,52.78745785989253,9.99982144891352,Sicherheit,Bergen,Stadt,Niedersachsen,1
2023-01,52.920477804251504,11.879609880315488,Sicherheit,Rühstädt,Gemeinde,Brandenburg,1
2023-01,53.03514375551939,13.17336343424173,Digitalisierung,Gransee,Stadt,Brandenburg,1
2023-01,53.13913937079135,10.484392323245242,Digitalisierung,Bienenbüttel,Gemeinde,Niedersachsen,1
2023-01,53.3568594559542,8.25357044901362,Umwelt,Jade,Gemeinde,Niedersachsen,1
2023-01,53.43191452934318,9.796209232195404,Digitalisierung,Neu Wulmstorf,Gemeinde,Niedersachsen,1
2023-01,54.04829121303884,10.420521199115846,Digitalisierung,Seedorf,Gemeinde,Schleswig-Holstein,1
2023-01,54.291452931720855,8.95234454789409,Migration,Karolinenkoog,Gemeinde,Schleswig-Holstein,1
2023-02,48.40990243321118,9.785725949691232,Digitalisierung,Blaubeuren,Stadt,Baden-Württemberg,1
2023-02,48.592643082183294,12.320924890088309,Sicherheit,Niederaichbach,Gemeinde,Bayern,1
2023-02,49.08617650079015,9.571492567648145,Digitalisierung,Mainhardt,Gemeinde,Baden-Württemberg,1
2023-02,49.32313624908861,9.150804847415907,Gesundheit,Neckarzimmern,Gemeinde,Baden-Württemberg,1
2023-02,49.876777002124406,9.960700314091804,Sicherheit,Rimpar,Gemeinde,Bayern,1
2023-02,50.30674203112849,11.285356877864904,Migration,Stockheim,Gemeinde,Bayern,1
2023-02,50.91257908233844,13.074832697594134,Sicherheit,Frankenberg/Sa.,Stadt,Sachsen,1
2023-02,51.0762496496202,7.536694379490452,Migration,Marienheide,Gemeinde,Nordrhein-Westfalen,1
2023-02,51.21677966143275,10.07198789331818,Wirtschaft,Meinhard,Gemeinde,Hessen,1
2023-02,51.3042460535554,14.686822274357732,Bildung,Mücka,Gemeinde,Sachsen,1
2023-02,51.42883053297993,6.258598594929126,Wirtschaft,Straelen,Stadt,Nordrhein-Westfalen,1
2023-02,51.44006653668714,11.40708513743632,Sicherheit,Allstedt,Stadt,Sachsen-Anhalt,1
2023-02,52.0227965709724,14.36973827811229,Sicherheit,Jamlitz,Gemeinde,Brandenburg,1
2023-02,52.297262983952365,7.257157786723539,Verkehr,Samern,Gemeinde,Niedersachsen,1
2023-02,52.57358998757952,7.690784598000905,Digitalisierung,Bippen,Gemeinde,Niedersachsen,1
2023-02,52.743102114999154,12.10716654833322,Bildung,Kamern,Gemeinde,Sachsen-Anhalt,1
2023-02,53.51071674860666,11.39876487340882,Umwelt,Sülstorf,Gemeinde,Mecklenburg-Vorpommern,1
2023-03,47.86427344256982,12.004115190502077,Digitalisierung,Bad Aibling,Stadt,Bayern,1
2023-03,48.42753283114261,12.888992400057338,Gesundheit,Postmünster,Gemeinde,Bayern,1
2023-03,48.56061517303108,12.720181414191185,Sicherheit,Simbach,Gemeinde,Bayern,1
2023-03,48.61679604069136,13.18100021255814,Bildung,Vilshofen an der Donau,Stadt,Bayern,1
2023-03,48.70931058985018,13.25553608918042,Migration,Eging a.See,Gemeinde,Bayern,1
2023-03,48.85319837491836,12.74276345738967,Digitalisierung,Irlbach,Gemeinde,Bayern,1
2023-03,49.22842761703355,12.003470357609618,Umwelt,Burglengenfeld,Stadt,Bayern,1
2023-03,49.52526961209137,7.095141768910395,Wirtschaft,Oberthal,Gemeinde,Saarland,1
2023-03,49.5408291535712,12.158732912519392,Verkehr,Wernberg-Köblitz,Gemeinde,Bayern,1
2023-03,49.62193590536516,11.34434397398408,Bildung,Simmelsdorf,Gemeinde,Bayern,1
2023-03,49.69663612979837,6.813251836554947,Migration,Osburg,Gemeinde,Rheinland-Pfalz,1
2023-03,49.742729836199416,9.523172165192364,Umwelt,Wertheim,Stadt,Baden-Württemberg,1
2023-03,49.78164222097119,11.195334463835245,Migration,Ebermannstadt,Stadt,Bayern,1
2023-03,50.01813695293495,10.715805347381345,Gesundheit,Breitbrunn,Gemeinde,Bayern,1
2023-03,50.09742862353415,8.049525955184558,Migration,Schlangenbad,Gemeinde,Hessen,1
2023-03,50.14415765700442,11.288664936416165,Digitalisierung,Burgkunstadt,Stadt,Bayern,1
2023-03,50.15495703579112,8.172323184227679,Sicherheit,Taunusstein,Stadt,Hessen,1
2023-03,50.39414710991554,10.17780585410783,Umwelt,Bastheim,Gemeinde,Bayern,1
2023-03,50.53911035084219,12.305526314452802,Migration,Treuen,Stadt,Sachsen,1
2023-03,50.562257072242666,9.98171302667784,Digitalisierung,Hilders,Gemeinde,Hessen,1
2023-03,50.76853600276007,6.956039426589019,Digitalisierung,Bornheim,Stadt,Nordrhein-Westfalen,1
2023-03,50.77765480430792,8.577818405277624,Digitalisierung,Gladenbach,Stadt,Hessen,1
2023-03,50.97628381122257,6.283111289690752,Wirtschaft,Linnich,Stadt,Nordrhein-Westfalen,1
2023-03,51.53817261412785,7.209224638813151,Migration,Herne,Stadt,Nordrhein-Westfalen,1
2023-03,51.77180801894284,14.366511195888393,Wirtschaft,Cottbus,Stadt,Brandenburg,1
2023-03,51.8926150997487,14.186198574161333,Verkehr,Byhleguhre-Byhlen,Gemeinde,Brandenburg,1
2023-03,51.946499642867984,7.022336364065826,Sicherheit,Gescher,Stadt,Nordrhein-Westfalen,1
2023-03,52.124185244386304,10.371081815128631,Umwelt,Salzgitter,Stadt,Niedersachsen,1
2023-03,52.16518678894195,9.266692359143224,Bildung,Hessisch Oldendorf,Stadt,Niedersachsen,1
2023-03,52.17310304963256,12.055764477533089,Migration,Möckern,Stadt,Sachsen-Anhalt,1
2023-03,52.25163952062056,11.65253240583257,Verkehr,Wolmirstedt,Stadt,Sachsen-Anhalt,1
2023-03,52.73455845384529,8.145996242864992,Verkehr,Bakum,Gemeinde,Niedersachsen,1
2023-03,53.09221314743649,14.20420304055523,Umwelt,Schwedt/Oder,Stadt,Brandenburg,1
2023-03,53.10476828642836,13.498823277210745,Wirtschaft,Templin,Stadt,Brandenburg,1
2023-03,53.325035485018816,8.907159047316256,Digitalisierung,Vollersode,Gemeinde,Niedersachsen,1
2023-03,53.5850009467713,7.758086480145501,Verkehr,Wittmund,Stadt,Niedersachsen,1
2023-03,53.90538609789954,12.616774459552223,Migration,Schwasdorf,Gemeinde,Mecklenburg-Vorpommern,1
2023-04,47.71207758309492,8.098796981578664,Migration,Dachsberg (Südschwarzwald),Gemeinde,Baden-Württemberg,1
2023-04,47.91025611415426,9.909861814348709,Wirtschaft,Bad Wurzach,Stadt,Baden-Württemberg,1
2023-04,48.28311892443936,9.677449575907996,Wirtschaft,Ehingen (Donau),Stadt,Baden-Württemberg,1
2023-04,48.596270015267855,8.601792029231179,Wirtschaft,Altensteig,Stadt,Baden-Württemberg,1
2023-04,48.89959846028165,9.386120116071762,Sicherheit,Leutenbach,Gemeinde,Baden-Württemberg,1
2023-04,49.04805960909875,9.860440694127291,Digitalisierung,Obersontheim,Gemeinde,Baden-Württemberg,1
2023-04,49.331594193019086,7.738888963160574,Wirtschaft,Schmalenberg,Gemeinde,Rheinland-Pfalz,1
2023-04,49.710254222032006,8.165396845158966,Verkehr,Eppelsheim,Gemeinde,Rheinland-Pfalz,1
2023-04,50.3557704669378,9.554250031286646,Umwelt,Schlüchtern,Stadt,Hessen,1
2023-04,50.51210463720024,7.458450171275499,Umwelt,Ehlscheid,Gemeinde,Rheinland-Pfalz,1
2023-04,50.536828540262974,11.59951536578315,Sicherheit,Remptendorf,Gemeinde,Thüringen,1
2023-04,50.90764711798111,9.568871397469785,Sicherheit,Neuenstein,Gemeinde,Hessen,1
2023-04,50.92687670356013,8.347809533556177,Digitalisierung,Bad Laasphe,Stadt,Nordrhein-Westfalen,1
2023-04,51.06641006707318,13.78303414896857,Bildung,Dresden,Stadt,Sachsen,1
2023-04,51.86857988688856,11.458832925019015,Wirtschaft,Hecklingen,Stadt,Sachsen-Anhalt,1
2023-04,52.1695649222893,10.096254857936774,Bildung,Schellerten,Gemeinde,Niedersachsen,1
2023-04,52.179879761274,7.637288835425407,Sicherheit,Saerbeck,Gemeinde,Nordrhein-Westfalen,1
2023-04,52.41088852618509,10.78430701105936,Umwelt,Wolfsburg,Stadt,Niedersachsen,1
2023-04,52.44414036622969,7.092065840148322,Wirtschaft,Nordhorn,Stadt,Niedersachsen,1
2023-04,52.49757550926025,8.099723557182283,Verkehr,Neuenkirchen-Vörden,Gemeinde,Niedersachsen,1
2023-04,52.84173621968375,11.14180143962829,Umwelt,Salzwedel,Stadt,Sachsen-Anhalt,1
2023-04,53.10476828642836,13.498823277210745,Migration,Templin,Stadt,Brandenburg,1
2023-04,53.20062578796528,13.88504392795803,Digitalisierung,Oberuckersee,Gemeinde,Brandenburg,1
2023-04,53.43991375338933,8.986782328141295,Sicherheit,Basdahl,Gemeinde,Niedersachsen,1
2023-04,53.76320543436258,10.783483608237038,Sicherheit,Utecht,Gemeinde,Mecklenburg-Vorpommern,1
2023-04,53.77322623257403,8.894138281032212,Sicherheit,Neuenkirchen,Gemeinde,Niedersachsen,1
2023-04,53.96633091558069,13.542316561466206,Sicherheit,Züssow,Gemeinde,Mecklenburg-Vorpommern,1
2023-04,54.01198605960772,12.229950609051032,Verkehr,Dummerstorf,Gemeinde,Mecklenburg-Vorpommern,1
2023-04,54.25383959055495,9.19494208435444,Umwelt,Linden,Gemeinde,Schleswig-Holstein,1
2023-05,47.596301181854166,11.533954603625816,Gesundheit,Lenggries,Gemeinde,Bayern,1
2023-05,47.88666195770811,8.909500998325392,Sicherheit,Eigeltingen,Gemeinde,Baden-Württemberg,1
2023-05,48.174960813392914,7.920522942887662,Digitalisierung,Freiamt,Gemeinde,Baden-Württemberg,1
2023-05,48.19558264885268,10.728356512748777,Digitalisierung,Schwabmünchen,Stadt,Bayern,1
2023-05,48.27018621354997,12.655348565839306,Bildung,Winhöring,Gemeinde,Bayern,1
2023-05,48.2966892976518,8.266303781642081,Gesundheit,Wolfach,Stadt,Baden-Württemberg,1
2023-05,48.32396690493174,9.861992812219992,Migration,Erbach,Stadt,Baden-Württemberg,1
2023-05,48.38569360224408,8.875203554630458,Bildung,Rangendingen,Gemeinde,Baden-Württemberg,1
2023-05,48.66385893960576,11.942640668749029,Umwelt,Pfeffenhausen,Gemeinde,Bayern,1
2023-05,48.691169430449406,12.214485559128804,Digitalisierung,Ergoldsbach,Gemeinde,Bayern,1
2023-05,49.03543851501923,8.19224636772626,Migration,Wörth am Rhein,Stadt,Rheinland-Pfalz,1
2023-05,49.05962331785454,11.328171276277214,Wirtschaft,Greding,Stadt,Bayern,1
2023-05,49.14131338944093,8.140299696329068,Digitalisierung,Rohrbach,Gemeinde,Rheinland-Pfalz,1
2023-05,49.40318026566764,9.935347520681024,Digitalisierung,Niederstetten,Stadt,Baden-Württemberg,1
2023-05,49.48821841371919,10.782088412010582,Verkehr,Langenzenn,Stadt,Bayern,1
2023-05,49.84525718229639,7.378781809900855,Verkehr,Bundenbach,Gemeinde,Rheinland-Pfalz,1
2023-05,50.0755109420176,10.584036522686622,Digitalisierung,Königsberg i.Bay.,Stadt,Bayern,1
2023-05,50.16901047833738,9.79092048650254,Bildung,Wartmannsroth,Gemeinde,Bayern,1
2023-05,51.199095668026295,12.237118465186132,Wirtschaft,Pegau,Stadt,Sachsen,1
2023-05,51.24648738139381,9.033903242019022,Gesundheit,Waldeck,Stadt,Hessen,1
2023-05,51.31139232809976,11.782325626340656,Sicherheit,Mücheln (Geiseltal),Stadt,Sachsen-Anhalt,1
2023-05,51.467117137914926,10.55063179134701,Bildung,Lipprechterode,Gemeinde,Thüringen,1
2023-05,51.51931764695518,11.568404971945034,Gesundheit,Eisleben,Stadt,Sachsen-Anhalt,1
2023-05,51.56863288276752,9.749394467370305,Digitalisierung,Adelebsen,Gemeinde,Niedersachsen,1
2023-05,51.58461615869711,11.976768086415069,Umwelt,Petersberg,Gemeinde,Sachsen-Anhalt,1
2023-05,52.092576445334096,14.325971333113856,Migration,Friedland,Stadt,Brandenburg,1
2023-05,52.2900100461644,9.839002299728284,Umwelt,Laatzen,Stadt,Niedersachsen,1
2023-05,52.33565208892398,12.150303267695849,Migration,Genthin,Stadt,Sachsen-Anhalt,1
2023-05,52.53534018155653,7.874244679207148,Sicherheit,Ankum,Gemeinde,Niedersachsen,1
2023-05,52.88714330579044,13.181835171050016,Sicherheit,Löwenberger Land,Gemeinde,Brandenburg,1
2023-05,53.31320872969451,8.36072958854931,Wirtschaft,Ovelgönne,Gemeinde,Niedersachsen,1
2023-05,53.44909603373361,13.106981589970893,Bildung,Hohenzieritz,Gemeinde,Mecklenburg-Vorpommern,1
2023-05,53.475202345351526,12.606903094695578,Bildung,Klink,Gemeinde,Mecklenburg-Vorpommern,1
2023-06,47.64389272807684,7.779017146135219,Gesundheit,Maulburg,Gemeinde,Baden-Württemberg,1
2023-06,48.28447386886836,10.545485007472497,Sicherheit,Ziemetshausen,Gemeinde,Bayern,1
2023-06,48.345419507603374,13.253790313598982,Migration,Kirchham,Gemeinde,Bayern,1
2023-06,48.46381418945023,9.772226825737768,Wirtschaft,Berghülen,Gemeinde,Baden-Württemberg,1
2023-06,48.52452295413375,10.352328460417576,Wirtschaft,Gundelfingen a.d.Donau,Stadt,Bayern,1
2023-06,48.70757622468829,10.186971772815989,Bildung,Heidenheim an der Brenz,Stadt,Baden-Württemberg,1
2023-06,49.16240561017309,11.940585540858454,Digitalisierung,Kallmünz,Gemeinde,Bayern,1
2023-06,49.20604515445787,12.480472073661634,Umwelt,Roding,Stadt,Bayern,1
2023-06,49.42204867627637,10.969447784417373,Umwelt,Oberasbach,Stadt,Bayern,1
2023-06,49.43968800789327,7.956601977819647,Bildung,Frankenstein,Gemeinde,Rheinland-Pfalz,1
2023-06,49.92636179891424,7.023274392321529,Bildung,Lieser,Gemeinde,Rheinland-Pfalz,1
2023-06,50.44061841492137,12.008273806497671,Wirtschaft,Weischlitz,Gemeinde,Sachsen,1
2023-06,50.46416152842335,7.729460031085275,Verkehr,Ransbach-Baumbach,Stadt,Rheinland-Pfalz,1
2023-06,50.66700052999556,13.335815586508652,Verkehr,Olbernhau,Stadt,Sachsen,1
2023-06,50.683402994267176,7.478944838436684,Digitalisierung,Hirz-Maulsbach,Gemeinde,Rheinland-Pfalz,1
2023-06,50.90070668509109,7.406850435844916,Bildung,Much,Gemeinde,Nordrhein-Westfalen,1
2023-06,51.01700076428748,13.186883332080914,Bildung,Striegistal,Gemeinde,Sachsen,1
2023-06,51.06112119477935,12.596517740466924,Verkehr,Frohburg,Stadt,Sachsen,1
2023-06,51.09607353977884,6.891341347731768,Migration,Monheim am Rhein,Stadt,Nordrhein-Westfalen,1
2023-06,51.67301268114696,11.446896994266474,Verkehr,Arnstein,Stadt,Sachsen-Anhalt,1
2023-06,51.78141512349997,12.623301252477662,Digitalisierung,Kemberg,Stadt,Sachsen-Anhalt,1
2023-06,51.98922463875919,7.314303642110191,Gesundheit,Billerbeck,Stadt,Nordrhein-Westfalen,1
2023-06,52.06862907413054,10.61444840899748,Migration,Börßum,Gemeinde,Niedersachsen,1
2023-06,52.22358872968127,8.79804271915257,Sicherheit,Bad Oeynhausen,Stadt,Nordrhein-Westfalen,1
2023-06,52.38648234879535,11.07164232059235,Migration,Oebisfelde-Weferlingen,Stadt,Sachsen-Anhalt,1
2023-06,52.44875637385456,12.16656403098122,Gesundheit,Jerichow,Stadt,Sachsen-Anhalt,1
2023-06,52.5017833409084,13.401154893793652,Bildung,Berlin,Stadt,Berlin,1
2023-06,52.59511301496881,11.105838089467392,Gesundheit,Klötze,Stadt,Sachsen-Anhalt,1
2023-06,52.749135192546085,10.87116889493214,Gesundheit,Diesdorf,Gemeinde,Sachsen-Anhalt,1
2023-06,53.03514375551939,13.17336343424173,Migration,Gransee,Stadt,Brandenburg,1
2023-06,53.66320862248817,10.505439184965494,Bildung,Sirksfelde,Gemeinde,Schleswig-Holstein,1
2023-06,53.76524788977503,10.274460394500313,Bildung,Elmenhorst,Gemeinde,Schleswig-Holstein,1
2023-06,53.80672114556926,11.747862117905274,Verkehr,Warin,Stadt,Mecklenburg-Vorpommern,1
2023-06,53.982673220581006,9.37849112489351,Verkehr,Nutteln,Gemeinde,Schleswig-Holstein,1
2023-06,54.19796672263944,10.766859627579857,Sicherheit,Schönwalde am Bungsberg,Gemeinde,Schleswig-Holstein,1
2023-07,47.880045876702816,10.616428731080616,Digitalisierung,Kaufbeuren,Stadt,Bayern,1
2023-07,48.06411094245421,11.665612632752444,Wirtschaft,Ottobrunn,Gemeinde,Bayern,1
2023-07,48.25154614095729,7.853304602952712,Digitalisierung,Ettenheim,Stadt,Baden-Württemberg,1
2023-07,48.35897533633885,8.40584928260966,Wirtschaft,Alpirsbach,Stadt,Baden-Württemberg,1
2023-07,48.5820632314219,13.415418312795376,Digitalisierung,Passau,Stadt,Bayern,1
2023-07,48.66133796898985,8.674381117998408,Migration,Neubulach,Stadt,Baden-Württemberg,1
2023-07,48.96010798502636,9.96751607646216,Digitalisierung,Adelmannsfelden,Gemeinde,Baden-Württemberg,1
2023-07,49.17287910647288,8.421133265341256,Umwelt,Dettenheim,Gemeinde,Baden-Württemberg,1
2023-07,49.266397340897925,11.027631952629244,Bildung,Büchenbach,Gemeinde,Bayern,1
2023-07,49.32088503077868,10.72318456808933,Verkehr,Petersaurach,Gemeinde,Bayern,1
2023-07,49.742729836199416,9.523172165192364,Umwelt,Wertheim,Stadt,Baden-Württemberg,1
2023-07,49.76967808012035,11.529561883122106,Wirtschaft,Pegnitz,Stadt,Bayern,1
2023-07,49.85275700486218,7.712717410966682,Umwelt,Sponheim,Gemeinde,Rheinland-Pfalz,1
2023-07,49.85500510274174,6.362582899128991,Migration,Bollendorf,Gemeinde,Rheinland-Pfalz,1
2023-07,49.88120287980341,8.086814724697007,Sicherheit,Partenheim,Gemeinde,Rheinland-Pfalz,1
2023-07,50.0352235160506,11.930845379263902,Umwelt,Tröstau,Gemeinde,Bayern,1
2023-07,50.43083467023812,9.023753287078115,Digitalisierung,Nidda,Stadt,Hessen,1
2023-07,50.98622751827672,8.555406326863556,Sicherheit,Hatzfeld (Eder),Stadt,Hessen,1
2023-07,51.05208450809687,7.014347689179845,Umwelt,Leverkusen,Stadt,Nordrhein-Westfalen,1
2023-07,51.06148217223442,14.500743376494617,Gesundheit,Oppach,Gemeinde,Sachsen,1
2023-07,51.11210839039678,7.402120547421422,Gesundheit,Wipperfürth,Stadt,Nordrhein-Westfalen,1
2023-07,51.13452655545383,11.770768497371154,Migration,Naumburg (Saale),Stadt,Sachsen-Anhalt,1
2023-07,51.739976610347455,11.966549960133529,Migration,Köthen (Anhalt),Stadt,Sachsen-Anhalt,1
2023-07,51.749854363835496,6.311696709895212,Umwelt,Kalkar,Stadt,Nordrhein-Westfalen,1
2023-07,51.970250119587874,8.214339207803755,Bildung,Harsewinkel,Stadt,Nordrhein-Westfalen,1
2023-07,51.97396171503152,9.998055595785084,Bildung,Lamspringe,Gemeinde,Niedersachsen,1
2023-07,52.085979471052966,11.391697358507992,Bildung,Wanzleben-Börde,Stadt,Sachsen-Anhalt,1
2023-07,52.52901139971246,12.278239991325536,Migration,Milower Land,Gemeinde,Brandenburg,1
2023-07,52.58700736274582,8.839072853742838,Digitalisierung,Kirchdorf,Gemeinde,Niedersachsen,1
2023-07,53.1562345549133,13.205565828399273,Umwelt,Fürstenberg/Havel,Stadt,Brandenburg,1
2023-07,53.45547782105415,8.614150006767218,Migration,Loxstedt,Gemeinde,Niedersachsen,1
2023-07,53.82283365003394,8.695430811217797,Gesundheit,Cuxhaven,Stadt,Niedersachsen,1
2023-07,54.11848631782274,10.061895602513289,Sicherheit,Großharrie,Gemeinde,Schleswig-Holstein,1
2023-07,54.38544457510063,13.5617144582978,Bildung,Zirkow,Gemeinde,Mecklenburg-Vorpommern,1
2023-07,54.60681913281168,13.290867230909718,Digitalisierung,Wiek,Gemeinde,Mecklenburg-Vorpommern,1
2023-07,54.66760438826262,9.756821672831164,Verkehr,Saustrup,Gemeinde,Schleswig-Holstein,1
2023-07,54.78514721782168,9.438717397237331,Sicherheit,Flensburg,Stadt,Schleswig-Holstein,1
2023-08,47.7841990336683,8.098598162393339,Wirtschaft,St. Blasien,Stadt,Baden-Württemberg,1
2023-08,48.31443272666465,9.11856161455174,Digitalisierung,Burladingen,Stadt,Baden-Württemberg,1
2023-08,48.63345781617468,12.84465357331036,Bildung,Eichendorf,Gemeinde,Bayern,1
2023-08,48.634909693945865,8.744481911261376,Verkehr,Wildberg,Stadt,Baden-Württemberg,1
2023-08,48.73679267065588,11.19403362429656,Verkehr,Neuburg a.d.Donau,Stadt,Bayern,1
2023-08,48.78161908983349,12.315503568231604,Migration,Laberweinting,Gemeinde,Bayern,1
2023-08,49.22529854283353,8.050152560556121,Umwelt,Landau in der Pfalz,Stadt,Rheinland-Pfalz,1
2023-08,49.28954175862375,11.270286199409592,Gesundheit,Pyrbaum,Gemeinde,Bayern,1
2023-08,49.34759224245657,10.800842985688886,Sicherheit,Heilsbronn,Stadt,Bayern,1
2023-08,50.456924839436894,10.59477930361196,Wirtschaft,St. Bernhard,Gemeinde,Thüringen,1
2023-08,50.54191912093855,6.266526311443713,Gesundheit,Monschau,Stadt,Nordrhein-Westfalen,1
2023-08,50.54617372076675,10.263840262783472,Wirtschaft,Rhönblick,Gemeinde,Thüringen,1
2023-08,50.74985969756206,11.277073807784324,Sicherheit,Rudolstadt,Stadt,Thüringen,1
2023-08,50.92687670356013,8.347809533556177,Wirtschaft,Bad Laasphe,Stadt,Nordrhein-Westfalen,1
2023-08,50.98526090605342,7.424027933332254,Migration,Engelskirchen,Gemeinde,Nordrhein-Westfalen,1
2023-08,51.09943910953353,13.306520664050622,Wirtschaft,Nossen,Stadt,Sachsen,1
2023-08,51.2308623426004,9.18555354507012,Gesundheit,Naumburg,Stadt,Hessen,1
2023-08,51.37827292979344,6.436912693964206,Umwelt,Kempen,Stadt,Nordrhein-Westfalen,1
2023-08,51.5877058527579,14.378977743169076,Gesundheit,Spremberg,Stadt,Brandenburg,1
2023-08,51.81637323864454,10.744855103793377,Sicherheit,Wernigerode,Stadt,Sachsen-Anhalt,1
2023-08,51.830988514820966,12.406585434164702,Bildung,Oranienbaum-Wörlitz,Stadt,Sachsen-Anhalt,1
2023-08,52.005767413132695,9.696676147769208,Sicherheit,Duingen,Gemeinde,Niedersachsen,1
2023-08,52.00878182437951,8.687291608699791,Migration,Leopoldshöhe,Gemeinde,Nordrhein-Westfalen,1
2023-08,52.19611650462673,9.616331688205833,Umwelt,Springe,Stadt,Niedersachsen,1
2023-08,52.25604472640684,10.213071412507045,Umwelt,Ilsede,Gemeinde,Niedersachsen,1
2023-08,52.35449427929749,7.145795886430801,Gesundheit,Isterberg,Gemeinde,Niedersachsen,1
2023-08,52.43925304112625,8.840857698535007,Umwelt,Warmsen,Gemeinde,Niedersachsen,1
2023-08,52.67466626981899,10.916685960065582,Bildung,Jübar,Gemeinde,Sachsen-Anhalt,1
2023-08,52.82485840092602,9.082515630912615,Digitalisierung,Hoyerhagen,Gemeinde,Niedersachsen,1
2023-08,52.83381431158583,11.600782842326318,Verkehr,Altmärkische Höhe,Gemeinde,Sachsen-Anhalt,1
2023-08,53.1562345549133,13.205565828399273,Gesundheit,Fürstenberg/Havel,Stadt,Brandenburg,1
2023-08,53.16838476840408,8.895681300618458,Umwelt,Lilienthal,Gemeinde,Niedersachsen,1
2023-08,53.242087705809546,7.561871626671465,Wirtschaft,Nortmoor,Gemeinde,Niedersachsen,1
2023-08,53.691415074350864,11.630184181029358,Migration,Kuhlen-Wendorf,Gemeinde,Mecklenburg-Vorpommern,1
2023-08,54.29323914099457,9.047956368611151,Gesundheit,Rehm-Flehde-Bargen,Gemeinde,Schleswig-Holstein,1
2023-08,54.39031691667653,8.759971481043781,Umwelt,Osterhever,Gemeinde,Schleswig-Holstein,1
2023-09,47.880545303236495,9.479203305481398,Wirtschaft,Fleischwangen,Gemeinde,Baden-Württemberg,1
2023-09,48.34540613102974,10.885432364997763,Gesundheit,Augsburg,Stadt,Bayern,1
2023-09,48.71549852075805,9.467232496459063,Wirtschaft,Reichenbach an der Fils,Gemeinde,Baden-Württemberg,1
2023-09,48.77429953938666,9.172204563511228,Umwelt,Stuttgart,Stadt,Baden-Württemberg,1
2023-09,49.2992070239286,7.423734940453776,Bildung,Großbundenbach,Gemeinde,Rheinland-Pfalz,1
2023-09,49.88972697052871,11.338362467324997,Sicherheit,Plankenfels,Gemeinde,Bayern,1
2023-09,50.05530408089337,6.183478375897054,Verkehr,Daleiden,Gemeinde,Rheinland-Pfalz,1
2023-09,50.22344223899431,8.287707913920173,Gesundheit,Idstein,Stadt,Hessen,1
2023-09,50.47014824050427,8.601066435355213,Umwelt,Langgöns,Gemeinde,Hessen,1
2023-09,50.56633753309273,11.959258141645224,Wirtschaft,Pausa-Mühltroff,Stadt,Sachsen,1
2023-09,50.69684958547334,7.400035614799728,Migration,Buchholz (Westerwald),Gemeinde,Rheinland-Pfalz,1
2023-09,50.75787714152193,13.422683975345825,Verkehr,Dorfchemnitz,Gemeinde,Sachsen,1
2023-09,50.91506062771819,8.725126840514509,Verkehr,Wetter (Hessen),Stadt,Hessen,1
2023-09,51.06112119477935,12.596517740466924,Migration,Frohburg,Stadt,Sachsen,1
2023-09,51.2335661088602,13.019606678483266,Migration,Mügeln,Stadt,Sachsen,1
2023-09,51.42610509230362,14.221342058929071,Migration,Hoyerswerda,Stadt,Sachsen,1
2023-09,51.5234996320717,13.141230846864971,Umwelt,Arzberg,Gemeinde,Sachsen,1
2023-09,51.68862601327375,14.43339564318408,Gesundheit,Neuhausen/Spree,Gemeinde,Brandenburg,1
2023-09,51.69502292844655,6.124111237071051,Gesundheit,Goch,Stadt,Nordrhein-Westfalen,1
2023-09,51.69547455921378,10.433938718569008,Verkehr,Harz (Landkreis Göttingen),Gemeindefreies Gebiet,Niedersachsen,1
2023-09,51.8114541744775,10.941042242331118,Wirtschaft,Blankenburg (Harz),Stadt,Sachsen-Anhalt,1
2023-09,51.849797535677126,13.74515701790406,Bildung,Luckau,Stadt,Brandenburg,1
2023-09,51.85871851712972,8.025387818362006,Verkehr,Ennigerloh,Stadt,Nordrhein-Westfalen,1
2023-09,52.18015322184828,12.566237973415284,Digitalisierung,Bad Belzig,Stadt,Brandenburg,1
2023-09,52.322043703873696,10.225623597299233,Umwelt,Peine,Stadt,Niedersachsen,1
2023-09,52.32472993607255,14.49008975170433,Wirtschaft,Frankfurt (Oder),Stadt,Brandenburg,1
2023-09,52.41088852618509,10.78430701105936,Sicherheit,Wolfsburg,Stadt,Niedersachsen,1
2023-09,52.41088852618509,10.78430701105936,Umwelt,Wolfsburg,Stadt,Niedersachsen,1
2023-09,52.50975302996236,13.939199294108777,Wirtschaft,Rehfelde,Gemeinde,Brandenburg,1
2023-09,52.51358597887245,9.022781911695263,Umwelt,Stolzenau,Gemeinde,Niedersachsen,1
2023-09,52.52606961946584,8.240498392409325,Digitalisierung,Damme,Stadt,Niedersachsen,1
2023-09,52.54089383025954,13.990993772563437,Digitalisierung,Garzau-Garzin,Gemeinde,Brandenburg,1
2023-09,53.2319936343641,9.797589686631568,Migration,Welle,Gemeinde,Niedersachsen,1
2023-09,53.37859513476734,8.012731690647497,Wirtschaft,Bockhorn,Gemeinde,Niedersachsen,1
2023-09,53.491701642005,9.16840749851314,Umwelt,Bremervörde,Stadt,Niedersachsen,1
2023-09,53.73210426417916,14.049770583726124,Gesundheit,Ueckermünde,Stadt,Mecklenburg-Vorpommern,1
2023-09,53.737673276822655,12.739139420824683,Wirtschaft,Malchin,Stadt,Mecklenburg-Vorpommern,1
2023-09,53.83302978528676,9.78912614368592,Bildung,Lutzhorn,Gemeinde,Schleswig-Holstein,1
2023-09,53.89369176420447,9.577586356478577,Digitalisierung,Breitenburg,Gemeinde,Schleswig-Holstein,1
2023-09,53.97325319210281,12.706277558787528,Bildung,Gnoien,Stadt,Mecklenburg-Vorpommern,1
2023-09,54.22179121964931,10.32429588514768,Migration,Schellhorn,Gemeinde,Schleswig-Holstein,1
2023-09,54.312936953556616,9.2516117811332,Wirtschaft,Delve,Gemeinde,Schleswig-Holstein,1
2023-09,54.39099057919416,13.387015496520531,Umwelt,Sehlen,Gemeinde,Mecklenburg-Vorpommern,1
2023-10,47.873525560389815,10.229897420464845,Gesundheit,Bad Grönenbach,Gemeinde,Bayern,1
2023-10,48.04850345768964,8.208586127534964,Sicherheit,Furtwangen im Schwarzwald,Stadt,Baden-Württemberg,1
2023-10,48.05391147353826,12.20036959741783,Gesundheit,Wasserburg a.Inn,Stadt,Bayern,1
2023-10,48.12359861883456,10.946509021966564,Wirtschaft,Weil,Gemeinde,Bayern,1
2023-10,48.781529372348565,10.688209135784524,Wirtschaft,Harburg (Schwaben),Stadt,Bayern,1
2023-10,49.31165066424184,10.162638530660514,Gesundheit,Insingen,Gemeinde,Bayern,1
2023-10,49.463198791978535,11.76303509690861,Verkehr,Eichen,Gemeindefreies Gebiet,Bayern,1
2023-10,49.62326860602865,11.141511023779904,Wirtschaft,Neunkirchen a.Brand,Gemeinde,Bayern,1
2023-10,49.75750591971744,7.975126718084283,Verkehr,Wendelsheim,Gemeinde,Rheinland-Pfalz,1
2023-10,50.41933670691267,8.63233187391807,Wirtschaft,Butzbach,Stadt,Hessen,1
2023-10,50.800024613994296,10.744005581300016,Digitalisierung,Ohrdruf,Stadt,Thüringen,1
2023-10,50.800024613994296,10.744005581300016,Migration,Ohrdruf,Stadt,Thüringen,1
2023-10,50.81162079971029,12.358960493224968,Bildung,Crimmitschau,Stadt,Sachsen,1
2023-10,50.87428081787505,10.958597158653433,Sicherheit,Amt Wachsenburg,Gemeinde,Thüringen,1
2023-10,51.0275438795426,13.510700580786056,Bildung,Wilsdruff,Stadt,Sachsen,1
2023-10,51.29173010230588,7.037264950404667,Wirtschaft,Wülfrath,Stadt,Nordrhein-Westfalen,1
2023-10,51.3147782018928,6.873888680240017,Sicherheit,Ratingen,Stadt,Nordrhein-Westfalen,1
2023-10,51.318951995427504,14.803981902500894,Migration,Niesky,Stadt,Sachsen,1
2023-10,51.3455289807423,6.579550346514247,Gesundheit,Krefeld,Stadt,Nordrhein-Westfalen,1
2023-10,51.36707481265891,11.008793074579796,Umwelt,Kyffhäuserland,Gemeinde,Thüringen,1
2023-10,51.56863288276752,9.749394467370305,Gesundheit,Adelebsen,Gemeinde,Niedersachsen,1
2023-10,51.7131967427333,12.474731106844644,Verkehr,Gräfenhainichen,Stadt,Sachsen-Anhalt,1
2023-10,51.910938997056334,9.265192760094898,Digitalisierung,Lügde,Stadt,Nordrhein-Westfalen,1
2023-10,52.06931053027783,12.8604090837347,Umwelt,Treuenbrietzen,Stadt,Brandenburg,1
2023-10,52.11219560704827,14.63773423411019,Sicherheit,Lawitz,Gemeinde,Brandenburg,1
2023-10,52.27832174790479,8.047545824557368,Bildung,Osnabrück,Stadt,Niedersachsen,1
2023-10,52.50345099345861,12.479367596689112,Umwelt,Havelsee,Stadt,Brandenburg,1
2023-10,52.57358998757952,7.690784598000905,Bildung,Bippen,Gemeinde,Niedersachsen,1
2023-10,52.66775629073706,14.364102559245802,Migration,Letschin,Gemeinde,Brandenburg,1
2023-10,52.68396305076219,13.27957767451186,Verkehr,Hohen Neuendorf,Stadt,Brandenburg,1
2023-10,52.860696649040506,9.56982814088499,Wirtschaft,Walsrode,Stadt,Niedersachsen,1
2023-10,53.56378707651445,13.90263212505409,Umwelt,Jatznick,Gemeinde,Mecklenburg-Vorpommern,1
2023-10,53.59078561636292,11.792797903832946,Migration,Bülow,Gemeinde,Mecklenburg-Vorpommern,1
2023-10,54.09267542550548,12.275573171962066,Bildung,Broderstorf,Gemeinde,Mecklenburg-Vorpommern,1
2023-10,54.163755922247184,12.494420791061804,Gesundheit,Marlow,Stadt,Mecklenburg-Vorpommern,1
2023-10,54.20167187449235,9.53416265265476,Wirtschaft,Breiholz,Gemeinde,Schleswig-Holstein,1
2023-11,47.58434787545965,12.871942364086744,Umwelt,Ramsau b.Berchtesgaden,Gemeinde,Bayern,1
2023-11,47.88699953339617,12.192919358640742,Gesundheit,Prutting,Gemeinde,Bayern,1
2023-11,48.048792271351886,10.346031280005665,Digitalisierung,Erkheim,Gemeinde,Bayern,1
2023-11,48.40990243321118,9.785725949691232,Digitalisierung,Blaubeuren,Stadt,Baden-Württemberg,1
2023-11,48.49909370437303,12.191570815076757,Digitalisierung,Kumhausen,Gemeinde,Bayern,1
2023-11,48.50791043554253,10.450539767559484,Migration,Aislingen,Gemeinde,Bayern,1
2023-11,48.6491019278309,8.329625674212977,Verkehr,Forbach,Gemeinde,Baden-Württemberg,1
2023-11,48.66385893960576,11.942640668749029,Bildung,Pfeffenhausen,Gemeinde,Bayern,1
2023-11,48.77621783844651,11.96887774292697,Gesundheit,Rohr i.NB,Gemeinde,Bayern,1
2023-11,49.06216788457552,8.908756634961179,Sicherheit,Zaberfeld,Gemeinde,Baden-Württemberg,1
2023-11,49.13044682256492,11.121931368540093,Gesundheit,Heideck,Stadt,Bayern,1
2023-11,49.18090595466603,9.033961262922546,Gesundheit,Massenbachhausen,Gemeinde,Baden-Württemberg,1
2023-11,49.28737059847016,10.80855912364164,Gesundheit,Neuendettelsau,Gemeinde,Bayern,1
2023-11,49.37357633322173,11.564017621624322,Verkehr,Lauterhofen,Gemeinde,Bayern,1
2023-11,49.536855126020896,12.042728788212832,Gesundheit,Schnaittenbach,Stadt,Bayern,1
2023-11,49.89035199507169,12.102786206603968,Verkehr,Friedenfels,Gemeinde,Bayern,1
2023-11,50.149956325202055,8.434295145113522,Umwelt,Kelkheim (Taunus),Stadt,Hessen,1
2023-11,50.34303769301391,9.44894881678516,Gesundheit,Steinau an der Straße,Stadt,Hessen,1
2023-11,50.45936606824138,8.7454630209337,Gesundheit,Münzenberg,Stadt,Hessen,1
2023-11,50.792946911365206,7.573647374601116,Verkehr,Windeck,Gemeinde,Nordrhein-Westfalen,1
2023-11,50.82665639470299,12.911924471579464,Gesundheit,Chemnitz,Stadt,Sachsen,1
2023-11,50.88241607159276,14.12493097095254,Bildung,Gohrisch,Gemeinde,Sachsen,1
2023-11,51.03064799719012,7.571509215361876,Wirtschaft,Gummersbach,Stadt,Nordrhein-Westfalen,1
2023-11,51.062795126712,14.564988070454532,Migration,Schönbach,Gemeinde,Sachsen,1
2023-11,51.26277881466992,6.518400970388244,Bildung,Willich,Stadt,Nordrhein-Westfalen,1
2023-11,51.2631645436593,6.3602081282949285,Digitalisierung,Viersen,Stadt,Nordrhein-Westfalen,1
2023-11,51.28642731442617,9.739182964715638,Verkehr,Gutsbezirk Kaufunger Wald,Gemeindefreies Gebiet,Hessen,1
2023-11,51.46832349956833,14.723395549227616,Bildung,Weißkeißel,Gemeinde,Sachsen,1
2023-11,51.87797033592938,11.614123415469429,Digitalisierung,Staßfurt,Stadt,Sachsen-Anhalt,1
2023-11,52.51283747297231,13.070974542636831,Bildung,Dallgow-Döberitz,Gemeinde,Brandenburg,1
2023-11,52.52014819127376,13.64945881208222,Gesundheit,Hoppegarten,Gemeinde,Brandenburg,1
2023-11,52.740322458107,8.839288474394797,Digitalisierung,Schwaförden,Gemeinde,Niedersachsen,1
2023-11,53.00791112330173,7.843897314066339,Verkehr,Friesoythe,Stadt,Niedersachsen,1
2023-11,53.12455476963856,12.385021754748015,Umwelt,Heiligengrabe,Gemeinde,Brandenburg,1
2023-11,53.79137543416122,12.205435197269765,Digitalisierung,Güstrow,Stadt,Mecklenburg-Vorpommern,1
2023-12,47.8647273055839,11.680432369109091,Gesundheit,Holzkirchen,Gemeinde,Bayern,1
2023-12,47.87757927410375,12.453325574309414,Bildung,Chiemsee (See),Gemeindefreies Gebiet,Bayern,1
2023-12,48.01562823929213,7.62229661052464,Bildung,Breisach am Rhein,Stadt,Baden-Württemberg,1
2023-12,48.51824168461745,9.75061679475726,Gesundheit,Merklingen,Gemeinde,Baden-Württemberg,1
2023-12,48.54044178179866,9.787884091811124,Gesundheit,Nellingen,Gemeinde,Baden-Württemberg,1
2023-12,48.55757390046606,8.158678344393236,Gesundheit,Ottenhöfen im Schwarzwald,Gemeinde,Baden-Württemberg,1
2023-12,48.703959944723096,10.4004724221248,Digitalisierung,Dischingen,Gemeinde,Baden-Württemberg,1
2023-12,48.71549852075805,9.467232496459063,Umwelt,Reichenbach an der Fils,Gemeinde,Baden-Württemberg,1
2023-12,49.03633066198758,12.544595674381398,Migration,Wiesenfelden,Gemeinde,Bayern,1
2023-12,49.22785396060922,10.48139952131711,Migration,Herrieden,Stadt,Bayern,1
2023-12,50.246529195795226,7.197875466535648,Verkehr,Gamlen,Gemeinde,Rheinland-Pfalz,1
2023-12,50.37329216998906,9.867147082110936,Sicherheit,Wildflecken,Gemeinde,Bayern,1
2023-12,50.84905954137288,11.363809165906138,Digitalisierung,Blankenhain,Stadt,Thüringen,1
2023-12,51.2957627525286,13.780621852872208,Verkehr,Thiendorf,Gemeinde,Sachsen,1
2023-12,51.80255804640104,6.125115272911331,Umwelt,Kleve,Stadt,Nordrhein-Westfalen,1
2023-12,52.010732727197016,8.54078601573409,Digitalisierung,Bielefeld,Stadt,Nordrhein-Westfalen,1
2023-12,52.03451894051232,13.483227119559114,Sicherheit,Baruth/Mark,Stadt,Brandenburg,1
2023-12,52.09397735566753,10.214658473532996,Wirtschaft,Baddeckenstedt,Gemeinde,Niedersachsen,1
2023-12,52.19413287429489,10.7194240827236,Migration,Evessen,Gemeinde,Niedersachsen,1
2023-12,52.32472993607255,14.49008975170433,Sicherheit,Frankfurt (Oder),Stadt,Brandenburg,1
2023-12,52.66942998304569,12.070466504134036,Bildung,Klietz,Gemeinde,Sachsen-Anhalt,1
2023-12,53.00596848200729,12.619797326949127,Wirtschaft,Temnitzquell,Gemeinde,Brandenburg,1
2023-12,53.08612994807937,10.990454767017972,Bildung,Karwitz,Gemeinde,Niedersachsen,1
2023-12,53.89820242450659,13.32657188957443,Verkehr,Jarmen,Stadt,Mecklenburg-Vorpommern,1
2024-01,48.28289838015861,10.650388164413997,Wirtschaft,Fischach,Gemeinde,Bayern,1
2024-01,48.38964732703078,11.238602727724276,Umwelt,Altomünster,Gemeinde,Bayern,1
2024-01,48.640225254331305,8.896124682702775,Bildung,Gärtringen,Gemeinde,Baden-Württemberg,1
2024-01,48.64158075851151,11.764694262348875,Verkehr,Mainburg,Stadt,Bayern,1
2024-01,49.32659631345769,7.338901436239064,Umwelt,Homburg,Stadt,Saarland,1
2024-01,49.4422761549171,12.589148864121748,Migration,Tiefenbach,Gemeinde,Bayern,1
2024-01,49.52526961209137,7.095141768910395,Wirtschaft,Oberthal,Gemeinde,Saarland,1
2024-01,49.550806978647856,8.983841651615196,Umwelt,Oberzent,Stadt,Hessen,1
2024-01,49.58125774177233,11.344495748467812,Wirtschaft,Schnaittach,Gemeinde,Bayern,1
2024-01,50.0829014732232,7.026512305096035,Bildung,Bad Bertrich,Gemeinde,Rheinland-Pfalz,1
2024-01,50.13793099172263,10.535420434086124,Digitalisierung,Hofheim i.UFr.,Stadt,Bayern,1
2024-01,50.27532219526474,9.803584967163266,Sicherheit,Oberleichtersbach,Gemeinde,Bayern,1
2024-01,50.62151978053932,12.29933602829616,Umwelt,Reichenbach im Vogtland,Stadt,Sachsen,1
2024-01,50.86268528480536,8.691408671625199,Sicherheit,Lahntal,Gemeinde,Hessen,1
2024-01,50.87007231941117,12.721236521469622,Umwelt,Limbach-Oberfrohna,Stadt,Sachsen,1
2024-01,50.91027496574533,11.858242189065182,Sicherheit,Bad Klosterlausnitz,Gemeinde,Thüringen,1
2024-01,51.199095668026295,12.237118465186132,Sicherheit,Pegau,Stadt,Sachsen,1
2024-01,51.51862029711783,6.310068839143327,Bildung,Geldern,Stadt,Nordrhein-Westfalen,1
2024-01,51.66545171604976,14.216452013624735,Digitalisierung,Drebkau,Stadt,Brandenburg,1
2024-01,51.90847073125117,12.63941840816762,Umwelt,Wittenberg,Stadt,Sachsen-Anhalt,1
2024-01,52.02446173812607,9.408123363553946,Bildung,Emmerthal,Gemeinde,Niedersachsen,1
2024-01,52.10359439549491,10.785355451246204,Digitalisierung,Uehrde,Gemeinde,Niedersachsen,1
2024-01,52.323435074204525,11.745139482911677,Verkehr,Rogätz,Gemeinde,Sachsen-Anhalt,1
2024-01,52.718331762113046,10.612856941076842,Sicherheit,Hankensbüttel,Gemeinde,Niedersachsen,1
2024-01,53.11384734498167,12.06982222188137,Wirtschaft,Groß Pankow (Prignitz),Gemeinde,Brandenburg,1
2024-01,53.22426993300941,8.389137833288913,Sicherheit,Elsfleth,Stadt,Niedersachsen,1
2024-01,53.24990421824826,8.585663302521777,Gesundheit,Schwanewede,Gemeinde,Niedersachsen,1
2024-01,53.25334180423064,8.105629971043854,Digitalisierung,Wiefelstede,Gemeinde,Niedersachsen,1
2024-01,53.29339469587844,10.73303054558632,Bildung,Bleckede,Stadt,Niedersachsen,1
2024-01,53.53055273665192,10.373839904999208,Verkehr,Sachsenwald (Forstgutsbez.),Gemeindefreies Gebiet,Schleswig-Holstein,1
2024-01,53.53842353996962,8.586771975272466,Gesundheit,Bremerhaven,Stadt,Bremen,1
2024-01,53.5465911476051,10.018943660181222,Bildung,Hamburg,Stadt,Hamburg,1
2024-01,53.64293904261312,13.811924354307925,Umwelt,Wilhelmsburg,Gemeinde,Mecklenburg-Vorpommern,1
2024-01,53.91318710369495,14.153332895721633,Migration,Korswandt,Gemeinde,Mecklenburg-Vorpommern,1
2024-01,54.67870549841221,9.09714323073186,Umwelt,Goldelund,Gemeinde,Schleswig-Holstein,1
2024-02,47.778832379607366,12.50825459294296,Migration,Staudach-Egerndach,Gemeinde,Bayern,1
2024-02,47.92916598073323,7.618983268544787,Wirtschaft,Hartheim am Rhein,Gemeinde,Baden-Württemberg,1
2024-02,48.13971386428424,8.258215377978471,Sicherheit,Triberg im Schwarzwald,Stadt,Baden-Württemberg,1
2024-02,48.20936543291351,11.34863383150798,Umwelt,Olching,Stadt,Bayern,1
2024-02,48.34739596352925,10.460125941176198,Verkehr,Burtenbach,Gemeinde,Bayern,1
2024-02,48.38169633126477,9.192605408850168,Bildung,Sonnenbühl,Gemeinde,Baden-Württemberg,1
2024-02,48.6782502840579,10.312223612030849,Digitalisierung,Zöschingen,Gemeinde,Bayern,1
2024-02,48.69284045282846,9.813444241666645,Sicherheit,Donzdorf,Stadt,Baden-Württemberg,1
2024-02,49.075296131128304,8.14475968683901,Verkehr,Minfeld,Gemeinde,Rheinland-Pfalz,1
2024-02,49.34254207216272,8.699944800298924,Verkehr,Leimen,Stadt,Baden-Württemberg,1
2024-02,49.67176666847831,10.475094277575607,Digitalisierung,Scheinfeld,Stadt,Bayern,1
2024-02,49.826312990399295,8.169198503138498,Wirtschaft,Gabsheim,Gemeinde,Rheinland-Pfalz,1
2024-02,50.01813695293495,10.715805347381345,Digitalisierung,Breitbrunn,Gemeinde,Bayern,1
2024-02,50.69391604239161,13.08230899638502,Verkehr,Großolbersdorf,Gemeinde,Sachsen,1
2024-02,51.01154302034794,9.74016732445471,Sicherheit,Rotenburg a.d.Fulda,Stadt,Hessen,1
2024-02,51.04747826069492,11.428072639731203,Verkehr,Ilmtal-Weinstraße,Gemeinde,Thüringen,1
2024-02,51.08757573915521,6.607555316695562,Bildung,Grevenbroich,Stadt,Nordrhein-Westfalen,1
2024-02,51.12766783685779,12.002037297156232,Sicherheit,Teuchern,Stadt,Sachsen-Anhalt,1
2024-02,51.18737808652697,11.396560917397409,Migration,Rastenberg,Stadt,Thüringen,1
2024-02,51.489157997374704,10.918082980335512,Umwelt,Urbach,Gemeinde,Thüringen,1
2024-02,51.50920074739014,14.02904974319388,Gesundheit,Senftenberg,Stadt,Brandenburg,1
2024-02,51.55627774222177,7.909069655757472,Wirtschaft,Werl,Stadt,Nordrhein-Westfalen,1
2024-02,51.64583149672694,11.496996588305269,Verkehr,Hettstedt,Stadt,Sachsen-Anhalt,1
2024-02,51.72152742001863,9.038467653837728,Gesundheit,Bad Driburg,Stadt,Nordrhein-Westfalen,1
2024-02,51.77180801894284,14.366511195888393,Migration,Cottbus,Stadt,Brandenburg,1
2024-02,51.78602198042656,9.344460813218134,Wirtschaft,Höxter,Stadt,Nordrhein-Westfalen,1
2024-02,52.0948513102738,7.633171797801998,Bildung,Greven,Stadt,Nordrhein-Westfalen,1
2024-02,52.292003912074456,9.039156317217657,Verkehr,Bückeburg,Stadt,Niedersachsen,1
2024-02,52.37908293810021,9.769985620027333,Bildung,Hannover,Stadt,Niedersachsen,1
2024-02,52.78398992341047,11.74090389814623,Umwelt,Osterburg (Altmark),Stadt,Sachsen-Anhalt,1
2024-02,52.78712117141056,12.795628435602245,Bildung,Fehrbellin,Gemeinde,Brandenburg,1
2024-02,53.08850713354365,11.343134564783094,Wirtschaft,Lenzerwische,Gemeinde,Brandenburg,1
2024-02,54.52430488005111,13.616215529990477,Bildung,Sassnitz,Stadt,Mecklenburg-Vorpommern,1
2024-03,47.91025611415426,9.909861814348709,Umwelt,Bad Wurzach,Stadt,Baden-Württemberg,1
2024-03,47.93801417773993,8.189566159266597,Sicherheit,Titisee-Neustadt,Stadt,Baden-Württemberg,1
2024-03,48.067201829715934,11.87746044549961,Sicherheit,Kirchseeon,Gemeinde,Bayern,1
2024-03,49.777012893606816,7.790635407998899,Bildung,Feilbingert,Gemeinde,Rheinland-Pfalz,1
2024-03,49.951569329725615,12.07176178794065,Bildung,Waldershof,Stadt,Bayern,1
2024-03,50.02663366196613,7.20087829176205,Wirtschaft,Zell (Mosel),Stadt,Rheinland-Pfalz,1
2024-03,50.28168182118269,12.24937440955734,Wirtschaft,Bad Elster,Stadt,Sachsen,1
2024-03,50.30864916231595,11.036291275613817,Digitalisierung,Rödental,Stadt,Bayern,1
2024-03,50.614969155889646,6.951231613043205,Migration,Rheinbach,Stadt,Nordrhein-Westfalen,1
2024-03,50.62585324394347,7.1189660814346,Verkehr,Wachtberg,Gemeinde,Nordrhein-Westfalen,1
2024-03,50.63243483341122,7.490511413394573,Gesundheit,Rott,Gemeinde,Rheinland-Pfalz,1
2024-03,50.828388798184605,6.1507699246397385,Sicherheit,Würselen,Stadt,Nordrhein-Westfalen,1
2024-03,50.91311431592979,11.307665781714128,Verkehr,Hetschburg,Gemeinde,Thüringen,1
2024-03,51.10000057657633,10.648215468499208,Verkehr,Bad Langensalza,Stadt,Thüringen,1
2024-03,51.14498495051639,14.03123705629022,Umwelt,Großröhrsdorf,Stadt,Sachsen,1
2024-03,51.31060892499695,8.006201231930575,Gesundheit,Sundern (Sauerland),Stadt,Nordrhein-Westfalen,1
2024-03,51.44152534538135,13.733522875535042,Umwelt,Tettau,Gemeinde,Brandenburg,1
2024-03,51.47007662784823,13.62237592120756,Gesundheit,Plessa,Gemeinde,Brandenburg,1
2024-03,51.60582825467223,7.212592668593139,Bildung,Recklinghausen,Stadt,Nordrhein-Westfalen,1
2024-03,51.946499642867984,7.022336364065826,Migration,Gescher,Stadt,Nordrhein-Westfalen,1
2024-03,52.054867609776174,7.831678776266862,Gesundheit,Ostbevern,Gemeinde,Nordrhein-Westfalen,1
2024-03,52.51006201647161,11.365145003955824,Wirtschaft,Gardelegen,Stadt,Sachsen-Anhalt,1
2024-03,52.644201164421546,10.462408582499856,Gesundheit,Groß Oesingen,Gemeinde,Niedersachsen,1
2024-03,52.82070902316909,12.14633604146841,Migration,Havelberg,Stadt,Sachsen-Anhalt,1
2024-03,53.02631051640853,10.416694936126175,Bildung,Ebstorf,Gemeinde,Niedersachsen,1
2024-03,53.164698277982566,11.701784616305838,Gesundheit,Karstädt,Gemeinde,Brandenburg,1
2024-03,53.255746012128405,8.792217623705275,Umwelt,Osterholz-Scharmbeck,Stadt,Niedersachsen,1
2024-03,53.37787753749901,11.976725376657164,Verkehr,Siggelkow,Gemeinde,Mecklenburg-Vorpommern,1
2024-03,53.462745322109086,10.31494155640782,Digitalisierung,Escheburg,Gemeinde,Schleswig-Holstein,1
2024-03,53.5465911476051,10.018943660181222,Migration,Hamburg,Stadt,Hamburg,1
2024-03,53.5465911476051,10.018943660181222,Wirtschaft,Hamburg,Stadt,Hamburg,1
2024-03,53.58835872718782,11.926205913797729,Migration,Mestlin,Gemeinde,Mecklenburg-Vorpommern,1
2024-03,53.8294461651693,9.441513461403568,Bildung,Borsfleth,Gemeinde,Schleswig-Holstein,1
2024-03,54.21427214006124,12.772616148141202,Gesundheit,Weitenhagen,Gemeinde,Mecklenburg-Vorpommern,1
2024-03,54.3091259115043,12.538693391245028,Digitalisierung,Saal,Gemeinde,Mecklenburg-Vorpommern,1
2024-03,54.84914754244932,9.090070953338827,Bildung,Bramstedtlund,Gemeinde,Schleswig-Holstein,1
2024-04,47.837747579313806,8.55695284072006,Wirtschaft,Blumberg,Stadt,Baden-Württemberg,1
2024-04,47.97043279329378,9.5824028004732,Bildung,Ebersbach-Musbach,Gemeinde,Baden-Württemberg,1
2024-04,48.23089565552896,10.19657561337974,Digitalisierung,Buch,Gemeinde,Bayern,1
2024-04,48.29229915434414,10.310593726950454,Sicherheit,Wiesenbach,Gemeinde,Bayern,1
2024-04,48.76422397298789,11.23174896739418,Umwelt,Bergheim,Gemeinde,Bayern,1
2024-04,48.77429953938666,9.172204563511228,Wirtschaft,Stuttgart,Stadt,Baden-Württemberg,1
2024-04,48.79611334732237,10.464392536280924,Bildung,Ederheim,Gemeinde,Bayern,1
2024-04,49.042731040111086,13.056047367940147,Bildung,Böbrach,Gemeinde,Bayern,1
2024-04,49.5293197702949,9.847566807349184,Verkehr,Igersheim,Gemeinde,Baden-Württemberg,1
2024-04,49.536855126020896,12.042728788212832,Sicherheit,Schnaittenbach,Stadt,Bayern,1
2024-04,49.579611051432224,12.525784914849266,Sicherheit,Eslarn,Gemeinde,Bayern,1
2024-04,49.81538120556528,7.111491010469457,Umwelt,Morbach,Gemeinde,Rheinland-Pfalz,1
2024-04,50.056139129762464,11.7760272383433,Digitalisierung,Bischofsgrün,Gemeinde,Bayern,1
2024-04,50.06475908744105,10.96320514531608,Migration,Ebensfeld,Gemeinde,Bayern,1
2024-04,50.097866574030384,11.890061725122862,Umwelt,Weißenstadt,Stadt,Bayern,1
2024-04,50.55678098921668,6.451504951175887,Sicherheit,Schleiden,Stadt,Nordrhein-Westfalen,1
2024-04,50.58382312011319,9.865715225834473,Digitalisierung,Hofbieber,Gemeinde,Hessen,1
2024-04,50.740648303687614,8.09429863196175,Gesundheit,Burbach,Gemeinde,Nordrhein-Westfalen,1
2024-04,50.86333811938235,10.5014566452661,Umwelt,Bad Tabarz,Gemeinde,Thüringen,1
2024-04,51.18977140473252,10.951277339084395,Migration,Gangloffsömmern,Gemeinde,Thüringen,1
2024-04,51.37069039539296,9.026639032647564,Sicherheit,Bad Arolsen,Stadt,Hessen,1
2024-04,51.48321483540855,13.85781497604494,Digitalisierung,Schwarzheide,Stadt,Brandenburg,1
2024-04,52.17520113696893,14.27161836722477,Digitalisierung,Beeskow,Stadt,Brandenburg,1
2024-04,52.2782708504037,7.707338210622132,Gesundheit,Ibbenbüren,Stadt,Nordrhein-Westfalen,1
2024-04,52.34016045337535,10.676088144372995,Verkehr,Lehre,Gemeinde,Niedersachsen,1
2024-04,52.37430361636001,14.0576045984572,Digitalisierung,Fürstenwalde/Spree,Stadt,Brandenburg,1
2024-04,52.42138122678397,12.764104507648952,Migration,Groß Kreutz (Havel),Gemeinde,Brandenburg,1
2024-04,52.42138122678397,12.764104507648952,Wirtschaft,Groß Kreutz (Havel),Gemeinde,Brandenburg,1
2024-04,52.51006201647161,11.365145003955824,Bildung,Gardelegen,Stadt,Sachsen-Anhalt,1
2024-04,52.5566108383723,8.790468972740573,Umwelt,Bahrenborstel,Gemeinde,Niedersachsen,1
2024-04,52.64528722307652,10.094990265823515,Wirtschaft,Celle,Stadt,Niedersachsen,1
2024-04,52.88714330579044,13.181835171050016,Gesundheit,Löwenberger Land,Gemeinde,Brandenburg,1
2024-04,52.95125431160779,12.836095782885772,Bildung,Neuruppin,Stadt,Brandenburg,1
2024-04,52.99583452614107,9.856347921466616,Verkehr,Soltau,Stadt,Niedersachsen,1
2024-04,53.02547375226533,10.260337014352046,Sicherheit,Wriedel,Gemeinde,Niedersachsen,1
2024-04,53.19704810114733,7.249340743153207,Migration,Bunde,Gemeinde,Niedersachsen,1
2024-04,53.218911622258325,12.765429403333098,Verkehr,Schwarz,Gemeinde,Mecklenburg-Vorpommern,1
2024-04,53.255746012128405,8.792217623705275,Digitalisierung,Osterholz-Scharmbeck,Stadt,Niedersachsen,1
2024-04,53.56634689851775,8.08834325672754,Umwelt,Wilhelmshaven,Stadt,Niedersachsen,1
2024-04,53.66815672509625,11.26865027945636,Umwelt,Brüsewitz,Gemeinde,Mecklenburg-Vorpommern,1
2024-04,53.88484526297564,10.870424011441385,Umwelt,Selmsdorf,Gemeinde,Mecklenburg-Vorpommern,1
2024-04,54.36198064945463,10.317594353730378,Wirtschaft,Passade,Gemeinde,Schleswig-Holstein,1
2024-05,48.39251778064585,11.725764188298072,Sicherheit,Freising,Stadt,Bayern,1
2024-05,48.40741831378004,12.410777934479558,Bildung,Bodenkirchen,Gemeinde,Bayern,1
2024-05,48.93932381872145,11.002686122513548,Gesundheit,Pappenheim,Stadt,Bayern,1
2024-05,49.08617650079015,9.571492567648145,Digitalisierung,Mainhardt,Gemeinde,Baden-Württemberg,1
2024-05,49.2149869044713,7.264697972425893,Migration,Blieskastel,Stadt,Saarland,1
2024-05,49.30951899095172,12.83324379191316,Verkehr,Furth im Wald,Stadt,Bayern,1
2024-05,49.78189174572185,9.140203336316212,Gesundheit,Wörth a.Main,Stadt,Bayern,1
2024-05,50.47041238679799,8.907285379486982,Bildung,Hungen,Stadt,Hessen,1
2024-05,50.517033856266615,6.904700832869947,Verkehr,Kirchsahr,Gemeinde,Rheinland-Pfalz,1
2024-05,50.767202588273285,8.47806275031051,Bildung,Bad Endbach,Gemeinde,Hessen,1
2024-05,51.13582315900079,9.447696974214075,Migration,Felsberg,Stadt,Hessen,1
2024-05,51.32589484743955,9.177581910146085,Verkehr,Wolfhagen,Stadt,Hessen,1
2024-05,51.431513313349846,9.678277599960952,Bildung,Hann.Münden,Stadt,Niedersachsen,1
2024-05,51.44006653668714,11.40708513743632,Wirtschaft,Allstedt,Stadt,Sachsen-Anhalt,1
2024-05,51.44732389753357,8.840613592487975,Digitalisierung,Marsberg,Stadt,Nordrhein-Westfalen,1
2024-05,51.51528676496948,6.521491254856826,Sicherheit,Kamp-Lintfort,Stadt,Nordrhein-Westfalen,1
2024-05,51.81855516544688,12.97110352158565,Sicherheit,Jessen (Elster),Stadt,Sachsen-Anhalt,1
2024-05,51.82278878531129,9.888284255355057,Digitalisierung,Einbeck,Stadt,Niedersachsen,1
2024-05,52.07147524423396,8.760382856839453,Gesundheit,Bad Salzuflen,Stadt,Nordrhein-Westfalen,1
2024-05,52.51006201647161,11.365145003955824,Verkehr,Gardelegen,Stadt,Sachsen-Anhalt,1
2024-05,52.641605780263056,13.039970948635542,Digitalisierung,Schönwalde-Glien,Gemeinde,Brandenburg,1
2024-05,52.78712117141056,12.795628435602245,Wirtschaft,Fehrbellin,Gemeinde,Brandenburg,1
2024-05,53.349265482372445,10.20332933409695,Umwelt,Winsen (Luhe),Stadt,Niedersachsen,1
2024-05,53.5465911476051,10.018943660181222,Gesundheit,Hamburg,Stadt,Hamburg,1
2024-05,53.5855453008981,7.632642478734829,Wirtschaft,Dunum,Gemeinde,Niedersachsen,1
2024-05,53.61222806763596,12.349048983973098,Migration,Dobbin-Linstow,Gemeinde,Mecklenburg-Vorpommern,1
2024-05,53.66753537630508,11.980084224582086,Bildung,Borkow,Gemeinde,Mecklenburg-Vorpommern,1
2024-06,47.88480137439986,10.312074308027912,Verkehr,Böhen,Gemeinde,Bayern,1
2024-06,49.266116311699065,8.494319953031644,Bildung,Oberhausen-Rheinhausen,Gemeinde,Baden-Württemberg,1
2024-06,49.30342932591646,9.965291380240396,Gesundheit,Blaufelden,Gemeinde,Baden-Württemberg,1
2024-06,49.33007120194032,8.435040406625571,Gesundheit,Speyer,Stadt,Rheinland-Pfalz,1
2024-06,49.386253359706025,7.051322734069627,Umwelt,Illingen,Gemeinde,Saarland,1
2024-06,49.89570417340345,10.568145780378968,Migration,Rauhenebrach,Gemeinde,Bayern,1
2024-06,50.19591817080693,11.10155111722572,Umwelt,Neuensorger Forst,Gemeindefreies Gebiet,Bayern,1
2024-06,50.64550585978866,8.576389306534361,Umwelt,Biebertal,Gemeinde,Hessen,1
2024-06,50.705299629517135,7.998591636494381,Migration,Derschen,Gemeinde,Rheinland-Pfalz,1
2024-06,50.86486600874964,9.21441365053707,Bildung,Willingshausen,Gemeinde,Hessen,1
2024-06,50.9390912874161,9.875981346041533,Migration,Ronshausen,Gemeinde,Hessen,1
2024-06,50.97069596901849,13.868761805608514,Bildung,Heidenau,Stadt,Sachsen,1
2024-06,51.068641296154695,9.952468572266897,Wirtschaft,Sontra,Stadt,Hessen,1
2024-06,51.09740920700644,11.87679069544909,Migration,Mertendorf,Gemeinde,Sachsen-Anhalt,1
2024-06,51.183146444512445,8.31562959579358,Gesundheit,Schmallenberg,Stadt,Nordrhein-Westfalen,1
2024-06,51.47103885695109,14.84159835753368,Bildung,Krauschwitz i.d.O.L.,Gemeinde,Sachsen,1
2024-06,51.69502292844655,6.124111237071051,Wirtschaft,Goch,Stadt,Nordrhein-Westfalen,1
2024-06,51.69927317439822,11.667836393090145,Digitalisierung,Alsleben (Saale),Stadt,Sachsen-Anhalt,1
2024-06,51.774096713062,6.420248766174262,Gesundheit,Rees,Stadt,Nordrhein-Westfalen,1
2024-06,51.88368167577256,10.039715184219494,Umwelt,Bad Gandersheim,Stadt,Niedersachsen,1
2024-06,51.90217421439017,11.01899500679003,Sicherheit,Halberstadt,Stadt,Sachsen-Anhalt,1
2024-06,52.09981043431572,13.204907009503616,Bildung,Nuthe-Urstromtal,Gemeinde,Brandenburg,1
2024-06,52.29890913614144,11.705612564779678,Digitalisierung,Loitsche-Heinrichsberg,Gemeinde,Sachsen-Anhalt,1
2024-06,52.33038099618229,11.591751704492356,Gesundheit,Colbitz,Gemeinde,Sachsen-Anhalt,1
2024-06,52.586008992276966,11.787204701650804,Bildung,Stendal,Stadt,Sachsen-Anhalt,1
2024-06,52.67583616240436,9.378646134573508,Wirtschaft,Steimbke,Gemeinde,Niedersachsen,1
2024-06,53.185986717821365,13.673331148344143,Umwelt,Mittenwalde,Gemeinde,Brandenburg,1
2024-06,53.21678543133853,10.749074774518538,Verkehr,Dahlem,Gemeinde,Niedersachsen,1
2024-06,53.23510555129196,11.181106484433672,Wirtschaft,Vielank,Gemeinde,Mecklenburg-Vorpommern,1
2024-06,53.337914015854,12.406773516158449,Bildung,Fincken,Gemeinde,Mecklenburg-Vorpommern,1
2024-06,53.36680545502922,12.683959644506846,Migration,Südmüritz,Gemeinde,Mecklenburg-Vorpommern,1
2024-06,53.85329553603293,11.931434353890715,Gesundheit,Steinhagen,Gemeinde,Mecklenburg-Vorpommern,1
2024-06,53.8827539006702,10.468615141162354,Wirtschaft,Rehhorst,Gemeinde,Schleswig-Holstein,1
2024-06,53.89520470349856,13.7643041283308,Bildung,Murchin,Gemeinde,Mecklenburg-Vorpommern,1
2024-06,54.303305961591,10.506465988401038,Digitalisierung,Giekau,Gemeinde,Schleswig-Holstein,1
2024-06,54.46556572365834,11.149412404667803,Umwelt,Fehmarn,Stadt,Schleswig-Holstein,1
2024-07,47.78048439376997,8.76194086408565,Sicherheit,Hilzingen,Gemeinde,Baden-Württemberg,1
2024-07,47.91025611415426,9.909861814348709,Gesundheit,Bad Wurzach,Stadt,Baden-Württemberg,1
2024-07,48.21326094544671,11.884698757443983,Sicherheit,Ottenhofen,Gemeinde,Bayern,1
2024-07,48.23976375772054,12.362975886524252,Bildung,Heldenstein,Gemeinde,Bayern,1
2024-07,48.40554859667592,8.032159234090315,Migration,Gengenbach,Stadt,Baden-Württemberg,1
2024-07,48.78323050204742,11.849369429255049,Sicherheit,Biburg,Gemeinde,Bayern,1
2024-07,48.90829374312647,8.798400922359724,Bildung,Niefern-Öschelbronn,Gemeinde,Baden-Württemberg,1
2024-07,49.36930913357463,10.15907281783157,Gesundheit,Rothenburg ob der Tauber,Stadt,Bayern,1
2024-07,49.57097109369601,6.604107406584782,Gesundheit,Serrig,Gemeinde,Rheinland-Pfalz,1
2024-07,49.84859763862258,11.607958511728716,Gesundheit,Creußen,Stadt,Bayern,1
2024-07,49.86717247897158,8.17911932273398,Sicherheit,Udenheim,Gemeinde,Rheinland-Pfalz,1
2024-07,50.15325220279791,11.95110446666147,Wirtschaft,Kirchenlamitz,Stadt,Bayern,1
2024-07,50.3740690327899,12.44555403060451,Wirtschaft,Klingenthal,Stadt,Sachsen,1
2024-07,50.49115196395652,11.860940848189228,Gesundheit,Tanna,Stadt,Thüringen,1
2024-07,50.58721669330336,12.880239096694243,Sicherheit,Elterlein,Stadt,Sachsen,1
2024-07,50.68805765692016,7.634820564085993,Digitalisierung,Altenkirchen (Westerwald),Stadt,Rheinland-Pfalz,1
2024-07,50.76460141760131,9.816473559315524,Digitalisierung,Eiterfeld,Gemeinde,Hessen,1
2024-07,51.03977472997106,7.887191546493248,Gesundheit,Olpe,Stadt,Nordrhein-Westfalen,1
2024-07,51.11327951980824,6.144985304052885,Migration,Wassenberg,Stadt,Nordrhein-Westfalen,1
2024-07,51.71812500709148,9.592576393569669,Sicherheit,Solling (Landkreis Northeim),Gemeindefreies Gebiet,Niedersachsen,1
2024-07,51.95063581843887,9.398558024223508,Sicherheit,Ottenstein,Gemeinde,Niedersachsen,1
2024-07,52.12914079830928,7.093510973004349,Digitalisierung,Heek,Gemeinde,Nordrhein-Westfalen,1
2024-07,52.21697682506938,13.215228494470718,Digitalisierung,Trebbin,Stadt,Brandenburg,1
2024-07,52.4163571147949,7.996362443026103,Migration,Bramsche,Stadt,Niedersachsen,1
2024-07,52.57857302829618,10.775979384685138,Bildung,Ehra-Lessien,Gemeinde,Niedersachsen,1
2024-07,52.58702678140309,8.981904726938318,Umwelt,Steyerberg,Gemeinde,Niedersachsen,1
2024-07,52.58702678140309,8.981904726938318,Wirtschaft,Steyerberg,Gemeinde,Niedersachsen,1
2024-07,53.29165534870916,12.855433766054423,Bildung,Mirow,Stadt,Mecklenburg-Vorpommern,1
2024-07,53.53872176819728,13.748349503309113,Migration,Strasburg (Uckermark),Stadt,Mecklenburg-Vorpommern,1
2024-07,53.5465911476051,10.018943660181222,Sicherheit,Hamburg,Stadt,Hamburg,1
2024-07,53.61964192512673,13.339133469176796,Digitalisierung,Neverin,Gemeinde,Mecklenburg-Vorpommern,1
2024-07,53.827022088357865,10.805052478110309,Sicherheit,Lüdersdorf,Gemeinde,Mecklenburg-Vorpommern,1
2024-07,54.10346512980504,10.381688397549574,Digitalisierung,Nehmten,Gemeinde,Schleswig-Holstein,1
2024-07,54.11612386931284,11.88781239435324,Digitalisierung,Bad Doberan,Stadt,Mecklenburg-Vorpommern,1
2024-08,48.53603735925186,12.282932854364518,Bildung,Adlkofen,Gemeinde,Bayern,1
2024-08,48.551980951122935,11.49415699424312,Verkehr,Pfaffenhofen a.d.Ilm,Stadt,Bayern,1
2024-08,48.92103695449901,11.302645386207308,Sicherheit,Walting,Gemeinde,Bayern,1
2024-08,49.64971274848653,8.32485221423112,Verkehr,Worms,Stadt,Rheinland-Pfalz,1
2024-08,49.69215915090384,11.110136755385827,Bildung,Pinzberg,Gemeinde,Bayern,1
2024-08,49.87503128857018,11.151750922652909,Bildung,Heiligenstadt i.OFr.,Gemeinde,Bayern,1
2024-08,49.9516720456598,9.650341882217582,Bildung,Steinfeld,Gemeinde,Bayern,1
2024-08,50.072329193328834,9.34187691068697,Verkehr,Heinrichsthal,Gemeinde,Bayern,1
2024-08,50.13465545756806,9.13851433027287,Migration,Freigericht,Gemeinde,Hessen,1
2024-08,50.408034301558544,6.688654749123171,Digitalisierung,Blankenheim,Gemeinde,Nordrhein-Westfalen,1
2024-08,50.50526901601397,10.000098141115986,Verkehr,Ehrenberg (Rhön),Gemeinde,Hessen,1
2024-08,50.77781118685433,8.209525546401647,Digitalisierung,Haiger,Stadt,Hessen,1
2024-08,50.92457631544523,13.830475652346808,Wirtschaft,Müglitztal,Gemeinde,Sachsen,1
2024-08,51.054975080968,12.339072818904162,Gesundheit,Meuselwitz,Stadt,Thüringen,1
2024-08,51.20656643837494,11.335661894349654,Verkehr,Ostramondra,Gemeinde,Thüringen,1
2024-08,51.31060892499695,8.006201231930575,Digitalisierung,Sundern (Sauerland),Stadt,Nordrhein-Westfalen,1
2024-08,51.41286546201744,7.416068461753465,Verkehr,Herdecke,Stadt,Nordrhein-Westfalen,1
2024-08,51.42610509230362,14.221342058929071,Wirtschaft,Hoyerswerda,Stadt,Sachsen,1
2024-08,51.43710601236254,7.804872287750698,Verkehr,Menden (Sauerland),Stadt,Nordrhein-Westfalen,1
2024-08,51.46832349956833,14.723395549227616,Digitalisierung,Weißkeißel,Gemeinde,Sachsen,1
2024-08,51.53212530866093,12.995082518493527,Gesundheit,Torgau,Stadt,Sachsen,1
2024-08,51.53212530866093,12.995082518493527,Verkehr,Torgau,Stadt,Sachsen,1
2024-08,51.5877058527579,14.378977743169076,Digitalisierung,Spremberg,Stadt,Brandenburg,1
2024-08,51.61118447957891,7.509467318437024,Umwelt,Lünen,Stadt,Nordrhein-Westfalen,1
2024-08,51.69547455921378,10.433938718569008,Wirtschaft,Harz (Landkreis Göttingen),Gemeindefreies Gebiet,Niedersachsen,1
2024-08,51.82313124752985,7.065560291011801,Umwelt,Reken,Gemeinde,Nordrhein-Westfalen,1
2024-08,51.87079661550644,8.968818576936545,Bildung,Horn-Bad Meinberg,Stadt,Nordrhein-Westfalen,1
2024-08,52.1171176422555,11.64079593423725,Migration,Magdeburg,Stadt,Sachsen-Anhalt,1
2024-08,52.29114535814175,13.26521720913635,Verkehr,Ludwigsfelde,Stadt,Brandenburg,1
2024-08,52.38145854261516,10.018189729426252,Gesundheit,Lehrte,Stadt,Niedersachsen,1
2024-08,52.47828367503945,10.33126933446723,Bildung,Meinersen,Gemeinde,Niedersachsen,1
2024-08,52.51283747297231,13.070974542636831,Verkehr,Dallgow-Döberitz,Gemeinde,Brandenburg,1
2024-08,52.52067994178242,7.343781053257457,Bildung,Lingen (Ems),Stadt,Niedersachsen,1
2024-08,52.61665465440737,6.945868003065897,Gesundheit,Ringe,Gemeinde,Niedersachsen,1
2024-08,52.64334413596296,9.820010015888831,Digitalisierung,Wietze,Gemeinde,Niedersachsen,1
2024-08,53.10476828642836,13.498823277210745,Digitalisierung,Templin,Stadt,Brandenburg,1
2024-08,53.30931253834008,11.295566701395876,Gesundheit,Alt Krenzlin,Gemeinde,Mecklenburg-Vorpommern,1
2024-08,53.316529396068354,11.438988369999043,Sicherheit,Ludwigslust,Stadt,Mecklenburg-Vorpommern,1
2024-08,54.30982647733559,8.64785995858227,Wirtschaft,Sankt Peter-Ording,Gemeinde,Schleswig-Holstein,1
2024-08,54.31873219617224,12.67744784960118,Sicherheit,Divitz-Spoldershagen,Gemeinde,Mecklenburg-Vorpommern,1
2024-08,54.420370371884665,12.514690878588764,Digitalisierung,Born a.Darß,Gemeinde,Mecklenburg-Vorpommern,1
2024-09,47.82670502882092,9.791995646341457,Digitalisierung,Wolfegg,Gemeinde,Baden-Württemberg,1
2024-09,48.60230430588861,11.630476942510231,Gesundheit,Wolnzach,Gemeinde,Bayern,1
2024-09,48.638396368295496,9.607348245689511,Sicherheit,Bad Boll,Gemeinde,Baden-Württemberg,1
2024-09,48.82317438520945,11.763830985788545,Sicherheit,Neustadt a.d.Donau,Stadt,Bayern,1
2024-09,49.12073529316263,12.542227788197868,Migration,Michelsneukirchen,Gemeinde,Bayern,1
2024-09,49.16931937197965,10.474661066031269,Wirtschaft,Wieseth,Gemeinde,Bayern,1
2024-09,49.20246383434177,10.186358047615371,Umwelt,Schnelldorf,Gemeinde,Bayern,1
2024-09,49.4412910596422,11.41939580176883,Gesundheit,Offenhausen,Gemeinde,Bayern,1
2024-09,49.51013176237988,7.785889286112228,Gesundheit,Otterberg,Stadt,Rheinland-Pfalz,1
2024-09,49.673593691355485,9.171132330284394,Umwelt,Weilbach,Gemeinde,Bayern,1
2024-09,49.74459815504356,6.889844455454463,Umwelt,Bescheid,Gemeinde,Rheinland-Pfalz,1
2024-09,49.86099211440215,11.006383075897492,Sicherheit,Strullendorf,Gemeinde,Bayern,1
2024-09,50.20122817918981,12.083458205701328,Verkehr,Schönwald,Stadt,Bayern,1
2024-09,50.20783679635223,8.843097212892093,Digitalisierung,Schöneck,Gemeinde,Hessen,1
2024-09,50.42347226967033,8.370956125391317,Sicherheit,Weilmünster,Gemeinde,Hessen,1
2024-09,50.47566083261871,10.597796997169176,Migration,Beinerstadt,Gemeinde,Thüringen,1
2024-09,50.58295705997728,9.737418424870924,Migration,Petersberg,Gemeinde,Hessen,1
2024-09,50.76034617788655,11.8484841958164,Bildung,Triptis,Stadt,Thüringen,1
2024-09,50.94341471682688,10.176931417467344,Verkehr,Gerstungen,Gemeinde,Thüringen,1
2024-09,51.19131439231579,14.414419059398252,Wirtschaft,Bautzen,Stadt,Sachsen,1
2024-09,51.34099874794322,8.40124244520532,Umwelt,Bestwig,Gemeinde,Nordrhein-Westfalen,1
2024-09,51.373281038841775,11.308969571307246,Verkehr,Artern,Stadt,Thüringen,1
2024-09,51.43394565548803,7.0163067780982695,Sicherheit,Essen,Stadt,Nordrhein-Westfalen,1
2024-09,51.44006653668714,11.40708513743632,Gesundheit,Allstedt,Stadt,Sachsen-Anhalt,1
2024-09,51.50563503938174,8.439796809469355,Sicherheit,Rüthen,Stadt,Nordrhein-Westfalen,1
2024-09,51.61510039082132,11.636419663019732,Sicherheit,Gerbstedt,Stadt,Sachsen-Anhalt,1
2024-09,51.87989173949169,13.429507839189553,Bildung,Dahme/Mark,Stadt,Brandenburg,1
2024-09,52.02576646933069,13.088074599229223,Digitalisierung,Jüterbog,Stadt,Brandenburg,1
2024-09,52.22094727273439,12.40527744617718,Sicherheit,Gräben,Gemeinde,Brandenburg,1
2024-09,52.63522844739402,7.589967769575608,Verkehr,Dohren,Gemeinde,Niedersachsen,1
2024-09,52.75687406851054,13.486254014254005,Gesundheit,Wandlitz,Gemeinde,Brandenburg,1
2024-09,52.85527673760208,8.737208576446168,Wirtschaft,Bassum,Stadt,Niedersachsen,1
2024-09,52.860696649040506,9.56982814088499,Migration,Walsrode,Stadt,Niedersachsen,1
2024-09,52.87821822962572,7.596252412124549,Bildung,Spahnharrenstätte,Gemeinde,Niedersachsen,1
2024-09,53.02631051640853,10.416694936126175,Gesundheit,Ebstorf,Gemeinde,Niedersachsen,1
2024-09,53.30168990518853,12.25547229150441,Gesundheit,Meyenburg,Stadt,Brandenburg,1
2024-09,53.59214798914056,12.740989975652113,Bildung,Peenehagen,Gemeinde,Mecklenburg-Vorpommern,1
2024-09,53.738607476412376,13.349442236932427,Bildung,Werder,Gemeinde,Mecklenburg-Vorpommern,1
2024-09,53.836657871240966,13.698923051691551,Wirtschaft,Anklam,Stadt,Mecklenburg-Vorpommern,1
2024-09,54.00500859438012,14.065823961503996,Umwelt,Ückeritz,Gemeinde,Mecklenburg-Vorpommern,1
2024-10,47.74350656701262,12.30992973067659,Sicherheit,Aschau i.Chiemgau,Gemeinde,Bayern,1
2024-10,48.075623365535705,9.934295477364364,Gesundheit,Ochsenhausen,Stadt,Baden-Württemberg,2
2024-10,48.08835519496972,12.296009070266315,Wirtschaft,Babensham,Gemeinde,Bayern,1
2024-10,48.44151841748157,12.345653917960156,Migration,Vilsbiburg,Stadt,Bayern,1
2024-10,48.51431434084394,11.614657410002858,Wirtschaft,Schweitenkirchen,Gemeinde,Bayern,1
2024-10,48.69086845096308,11.038205970103991,Verkehr,Burgheim,Gemeinde,Bayern,1
2024-10,48.820780446135046,13.55100691914678,Gesundheit,Freyung,Stadt,Bayern,1
2024-10,48.8572565903519,10.51132316814563,Umwelt,Nördlingen,Stadt,Bayern,1
2024-10,48.92652999655538,8.405604571940406,Migration,Ettlingen,Stadt,Baden-Württemberg,1
2024-10,48.99566743496119,10.743938781687634,Digitalisierung,Heidenheim,Gemeinde,Bayern,1
2024-10,49.133144507323614,8.734545498723689,Verkehr,Kraichtal,Stadt,Baden-Württemberg,1
2024-10,49.203063767050985,9.977133159609602,Digitalisierung,Kirchberg an der Jagst,Stadt,Baden-Württemberg,1
2024-10,49.72841444171579,10.25389868749957,Digitalisierung,Rödelsee,Gemeinde,Bayern,1
2024-10,50.38565217576701,9.31280979393988,Verkehr,Birstein,Gemeinde,Hessen,1
2024-10,50.79406624760844,13.51692248734872,Digitalisierung,Frauenstein,Stadt,Sachsen,1
2024-10,51.99381690065059,7.78760662966148,Gesundheit,Telgte,Stadt,Nordrhein-Westfalen,1
2024-10,52.02980180370259,11.26433146273799,Umwelt,Oschersleben (Bode),Stadt,Sachsen-Anhalt,1
2024-10,52.07929097470037,9.800285169640528,Wirtschaft,Gronau (Leine),Stadt,Niedersachsen,1
2024-10,52.16379592287812,10.541687893827872,Gesundheit,Wolfenbüttel,Stadt,Niedersachsen,1
2024-10,52.16382727145186,13.691666226475672,Digitalisierung,Groß Köris,Gemeinde,Brandenburg,1
2024-10,52.20430031892197,10.304443190612956,Wirtschaft,Lengede,Gemeinde,Niedersachsen,1
2024-10,52.40011876875324,8.996245572317257,Verkehr,Petershagen,Stadt,Nordrhein-Westfalen,1
2024-10,52.43321074658376,14.147384770843493,Sicherheit,Steinhöfel,Gemeinde,Brandenburg,1
2024-10,52.5464961481946,10.198360439363006,Wirtschaft,Eicklingen,Gemeinde,Niedersachsen,1
2024-10,52.609660602259765,10.599926829916896,Bildung,Wahrenholz,Gemeinde,Niedersachsen,1
2024-10,53.05947025226873,9.228811035835752,Wirtschaft,Hellwege,Gemeinde,Niedersachsen,1
2024-10,53.38310046493742,10.796804210966682,Verkehr,Neu Gülze,Gemeinde,Mecklenburg-Vorpommern,1
2024-10,53.53184791079472,13.498630047910156,Bildung,Neetzka,Gemeinde,Mecklenburg-Vorpommern,1
2024-10,53.63513935332758,10.527177024808823,Gesundheit,Koberg,Gemeinde,Schleswig-Holstein,1
2024-10,53.64456899720346,11.059320824545784,Verkehr,Krembz,Gemeinde,Mecklenburg-Vorpommern,1
2024-10,53.75352019634868,13.183994284282608,Gesundheit,Gültz,Gemeinde,Mecklenburg-Vorpommern,1
2024-10,53.82858793731408,9.938574191484904,Verkehr,Kaltenkirchen,Stadt,Schleswig-Holstein,1
2024-10,53.96258265328607,10.747617756796474,Bildung,Ratekau,Gemeinde,Schleswig-Holstein,1
2024-10,54.3235278990548,10.386150059784464,Bildung,Fargau-Pratjau,Gemeinde,Schleswig-Holstein,1
2024-10,54.32518649328039,10.131712448699774,Bildung,Kiel,Stadt,Schleswig-Holstein,1
2024-10,54.701379495241184,9.262789575781518,Wirtschaft,Großenwiehe,Gemeinde,Schleswig-Holstein,1
2024-11,48.11936875372762,9.274526281556412,Wirtschaft,Bingen,Gemeinde,Baden-Württemberg,1
2024-11,48.38050325368018,10.052970066415831,Digitalisierung,Neu-Ulm,Stadt,Bayern,1
2024-11,48.449586572158886,10.085062641010918,Verkehr,Elchingen,Gemeinde,Bayern,1
2024-11,49.04368972582141,11.154605455145177,Gesundheit,Nennslingen,Gemeinde,Bayern,1
2024-11,49.512218195947455,12.542774463399184,Verkehr,Schönsee,Stadt,Bayern,1
2024-11,49.76158909756498,8.597962814110282,Wirtschaft,Bickenbach,Gemeinde,Hessen,1
2024-11,50.3256124738696,7.195548963316863,Gesundheit,Mayen,Stadt,Rheinland-Pfalz,1
2024-11,50.57407168447868,7.628144722361993,Digitalisierung,Raubach,Gemeinde,Rheinland-Pfalz,1
2024-11,50.72001465515493,13.21993942931611,Wirtschaft,Pockau-Lengefeld,Stadt,Sachsen,1
2024-11,50.81382036874828,11.515800979710557,Gesundheit,Gumperda,Gemeinde,Thüringen,1
2024-11,50.87428081787505,10.958597158653433,Umwelt,Amt Wachsenburg,Gemeinde,Thüringen,1
2024-11,50.9091868615555,11.339102680745166,Umwelt,Buchfart,Gemeinde,Thüringen,1
2024-11,50.96798697574697,6.673956001654208,Umwelt,Bergheim,Stadt,Nordrhein-Westfalen,1
2024-11,51.002856880126735,11.914756605094492,Gesundheit,Heideland,Gemeinde,Thüringen,1
2024-11,51.183146444512445,8.31562959579358,Digitalisierung,Schmallenberg,Stadt,Nordrhein-Westfalen,1
2024-11,51.20433190912336,13.293943638720592,Umwelt,Lommatzsch,Stadt,Sachsen,1
2024-11,51.21313644737817,7.638750856951459,Sicherheit,Lüdenscheid,Stadt,Nordrhein-Westfalen,1
2024-11,51.84694049634113,7.289119532263323,Gesundheit,Dülmen,Stadt,Nordrhein-Westfalen,1
2024-11,52.17310304963256,12.055764477533089,Sicherheit,Möckern,Stadt,Sachsen-Anhalt,1
2024-11,52.50130389935224,12.838677743246404,Bildung,Ketzin/Havel,Stadt,Brandenburg,1
2024-11,52.68439479060642,10.748434397146758,Gesundheit,Wittingen,Stadt,Niedersachsen,1
2024-11,52.812476478552014,9.37762647708133,Wirtschaft,Häuslingen,Gemeinde,Niedersachsen,1
2024-11,52.81513299601285,14.063192413186906,Sicherheit,Bad Freienwalde (Oder),Stadt,Brandenburg,1
2024-11,53.13141206382979,10.302993962071092,Bildung,Betzendorf,Gemeinde,Niedersachsen,1
2024-11,53.3229779143027,12.131812202078034,Sicherheit,Marienfließ,Gemeinde,Brandenburg,1
2024-11,53.32718438546904,13.691836620886887,Wirtschaft,Nordwestuckermark,Gemeinde,Brandenburg,1
2024-12,48.369307056955904,13.124615560510785,Sicherheit,Kößlarn,Gemeinde,Bayern,1
2024-12,48.724180542439264,11.56744454396304,Sicherheit,Ernsgaden,Gemeinde,Bayern,1
2024-12,48.780725013025474,10.10095592159228,Umwelt,Oberkochen,Stadt,Baden-Württemberg,1
2024-12,48.801163613988585,8.57848876858157,Gesundheit,Höfen an der Enz,Gemeinde,Baden-Württemberg,1
2024-12,50.12123832415397,11.432726035007502,Migration,Kulmbach,Stadt,Bayern,1
2024-12,50.12143112948884,10.28387170913165,Bildung,Üchtelhausen,Gemeinde,Bayern,1
2024-12,50.56385156441947,9.651907167134084,Sicherheit,Fulda,Stadt,Hessen,1
2024-12,50.661748848294486,8.762791715924765,Umwelt,Staufenberg,Stadt,Hessen,1
2024-12,50.711533056242295,6.372993158900714,Gesundheit,Hürtgenwald,Gemeinde,Nordrhein-Westfalen,1
2024-12,51.26322727291822,6.164161447554949,Migration,Brüggen,Gemeinde,Nordrhein-Westfalen,1
2024-12,51.27115979923229,9.948087256922252,Migration,Bad Sooden-Allendorf,Stadt,Hessen,1
2024-12,51.33523159097293,10.03954260688361,Gesundheit,Röhrig,Gemeinde,Thüringen,1
2024-12,51.44732389753357,8.840613592487975,Bildung,Marsberg,Stadt,Nordrhein-Westfalen,1
2024-12,51.66454064124744,10.096916884101768,Umwelt,Katlenburg-Lindau,Gemeinde,Niedersachsen,1
2024-12,51.6748894446094,8.601592171147098,Bildung,Salzkotten,Stadt,Nordrhein-Westfalen,1
2024-12,51.70666505329709,9.832834191914111,Digitalisierung,Moringen,Stadt,Niedersachsen,1
2024-12,51.71297164226506,6.990051356717776,Umwelt,Dorsten,Stadt,Nordrhein-Westfalen,1
2024-12,51.830988514820966,12.406585434164702,Verkehr,Oranienbaum-Wörlitz,Stadt,Sachsen-Anhalt,1
2024-12,51.94725817399088,8.675141092778983,Gesundheit,Oerlinghausen,Stadt,Nordrhein-Westfalen,1
2024-12,52.0262098310432,11.759294353875358,Umwelt,Schönebeck (Elbe),Stadt,Sachsen-Anhalt,1
2024-12,52.12893275685588,14.431769034509278,Umwelt,Grunow-Dammendorf,Gemeinde,Brandenburg,1
2024-12,52.45357533166812,11.81607504809393,Sicherheit,Tangerhütte,Stadt,Sachsen-Anhalt,1
2024-12,52.586008992276966,11.787204701650804,Verkehr,Stendal,Stadt,Sachsen-Anhalt,1
2024-12,52.66227697354504,8.230824574364009,Sicherheit,Lohne (Oldenburg),Stadt,Niedersachsen,1
2024-12,52.67835960340046,9.470886996070004,Umwelt,Rodewald,Gemeinde,Niedersachsen,1
2024-12,52.68200211709877,14.163283237808624,Bildung,Bliesdorf,Gemeinde,Brandenburg,1
2024-12,52.70021719261028,9.884173282911352,Digitalisierung,Winsen (Aller),Gemeinde,Niedersachsen,1
2024-12,53.05064241219289,9.697016977000487,Gesundheit,Neuenkirchen,Gemeinde,Niedersachsen,1
2024-12,53.5850009467713,7.758086480145501,Migration,Wittmund,Stadt,Niedersachsen,1
2024-12,53.63188859837426,10.280771644425734,Wirtschaft,Siek,Gemeinde,Schleswig-Holstein,1
2024-12,53.93292178845471,11.85684065182074,Wirtschaft,Jürgenshagen,Gemeinde,Mecklenburg-Vorpommern,1
2024-12,53.95003041159129,13.938897205204576,Migration,Rankwitz,Gemeinde,Mecklenburg-Vorpommern,1
2024-12,54.2959745971544,12.73377207336996,Wirtschaft,Löbnitz,Gemeinde,Mecklenburg-Vorpommern,1
2025-01,47.70586592675704,9.151325314016974,Verkehr,Konstanz,Stadt,Baden-Württemberg,1
2025-01,48.00976628088959,9.654320427775732,Gesundheit,Bad Schussenried,Stadt,Baden-Württemberg,1
2025-01,48.56061517303108,12.720181414191185,Wirtschaft,Simbach,Gemeinde,Bayern,1
2025-01,48.5834628648945,10.964946218511496,Verkehr,Baar (Schwaben),Gemeinde,Bayern,1
2025-01,49.170997443664966,11.229143813115735,Digitalisierung,Hilpoltstein,Stadt,Bayern,1
2025-01,49.8103443953157,8.205118372331992,Sicherheit,Bechtolsheim,Gemeinde,Rheinland-Pfalz,1
2025-01,50.09600050392454,11.654089168123877,Bildung,Marktschorgast,Gemeinde,Bayern,1
2025-01,50.24532343438105,11.334113624473796,Digitalisierung,Kronach,Stadt,Bayern,1
2025-01,50.94545157788019,6.973920728217749,Bildung,Köln,Stadt,Nordrhein-Westfalen,1
2025-01,51.25792318338769,14.558960675001208,Bildung,Malschwitz,Gemeinde,Sachsen,1
2025-01,51.51528676496948,6.521491254856826,Gesundheit,Kamp-Lintfort,Stadt,Nordrhein-Westfalen,1
2025-01,51.63450688659348,8.492148986963558,Bildung,Geseke,Stadt,Nordrhein-Westfalen,1
2025-01,51.83538753482636,6.455798571748761,Digitalisierung,Isselburg,Stadt,Nordrhein-Westfalen,1
2025-01,52.02576646933069,13.088074599229223,Migration,Jüterbog,Stadt,Brandenburg,1
2025-01,52.09981043431572,13.204907009503616,Digitalisierung,Nuthe-Urstromtal,Gemeinde,Brandenburg,1
2025-01,52.23123193365175,7.295004726921591,Digitalisierung,Wettringen,Gemeinde,Nordrhein-Westfalen,1
2025-01,52.724011175792754,12.492819788053778,Migration,Kleßen-Görne,Gemeinde,Brandenburg,1
2025-01,52.79518021781655,7.199172994740347,Gesundheit,Haren (Ems),Stadt,Niedersachsen,1
2025-01,52.930167444349344,10.313520472336617,Digitalisierung,Eimke,Gemeinde,Niedersachsen,1
2025-01,53.05269587107206,8.155634462148962,Umwelt,Wardenburg,Gemeinde,Niedersachsen,1
2025-01,53.29761735078717,8.830257954469376,Wirtschaft,Hambergen,Gemeinde,Niedersachsen,1
2025-01,53.390319617503714,9.307736380616006,Bildung,Anderlingen,Gemeinde,Niedersachsen,1
2025-01,53.6042989086478,12.445217065444572,Bildung,Hohen Wangelin,Gemeinde,Mecklenburg-Vorpommern,1
2025-01,53.619155331995934,13.16169647894128,Gesundheit,Breesen,Gemeinde,Mecklenburg-Vorpommern,1
2025-01,54.00296421362052,11.614834675821385,Migration,Alt Bukow,Gemeinde,Mecklenburg-Vorpommern,1
2025-01,54.01198605960772,12.229950609051032,Wirtschaft,Dummerstorf,Gemeinde,Mecklenburg-Vorpommern,1
2025-01,54.58110465727464,9.060293543667662,Wirtschaft,Bohmstedt,Gemeinde,Schleswig-Holstein,1
2025-02,47.72863950924222,12.177126509655874,Sicherheit,Nußdorf a.Inn,Gemeinde,Bayern,1
2025-02,48.03222739476686,11.81412805862312,Digitalisierung,Oberpframmern,Gemeinde,Bayern,1
2025-02,48.054144029331965,9.150697356723864,Umwelt,Inzigkofen,Gemeinde,Baden-Württemberg,1
2025-02,48.29796987327038,8.782008233064818,Bildung,Geislingen,Stadt,Baden-Württemberg,1
2025-02,48.96435228500322,10.180791682964715,Sicherheit,Ellwangen (Jagst),Stadt,Baden-Württemberg,1
2025-02,49.08639705714846,8.283254167107753,Wirtschaft,Jockgrim,Gemeinde,Rheinland-Pfalz,1
2025-02,49.18378161917949,10.092055173931977,Umwelt,Satteldorf,Gemeinde,Baden-Württemberg,1
2025-02,49.41637039009456,8.39448396513283,Gesundheit,Limburgerhof,Gemeinde,Rheinland-Pfalz,1
2025-02,49.91870440436488,6.933412840107687,Wirtschaft,Osann-Monzel,Gemeinde,Rheinland-Pfalz,1
2025-02,49.98348904098764,8.45100397619997,Verkehr,Rüsselsheim am Main,Stadt,Hessen,1
2025-02,50.37800197568255,11.919466316197692,Wirtschaft,Feilitzsch,Gemeinde,Bayern,1
2025-02,50.82079562347703,6.887241169782802,Bildung,Brühl,Stadt,Nordrhein-Westfalen,1
2025-02,51.05469055596012,8.404845837753864,Bildung,Bad Berleburg,Stadt,Nordrhein-Westfalen,1
2025-02,51.28130926555079,9.328818612912238,Bildung,Schauenburg,Gemeinde,Hessen,1
2025-02,51.3755683406639,12.625424489360151,Umwelt,Machern,Gemeinde,Sachsen,1
2025-02,51.43394565548803,7.0163067780982695,Wirtschaft,Essen,Stadt,Nordrhein-Westfalen,1
2025-02,51.51696818625759,12.564763403302663,Migration,Zschepplin,Gemeinde,Sachsen,1
2025-02,51.53670455005859,11.034571171914408,Verkehr,Südharz,Gemeinde,Sachsen-Anhalt,1
2025-02,51.67262808415283,13.193839044270804,Migration,Herzberg (Elster),Stadt,Brandenburg,1
2025-02,51.75255164422448,7.1861348097949085,Sicherheit,Haltern am See,Stadt,Nordrhein-Westfalen,1
2025-02,51.849797535677126,13.74515701790406,Umwelt,Luckau,Stadt,Brandenburg,1
2025-02,51.952273614397626,11.390378778844216,Gesundheit,Börde-Hakel,Gemeinde,Sachsen-Anhalt,1
2025-02,51.991910874051655,12.12437093041374,Gesundheit,Zerbst/Anhalt,Stadt,Sachsen-Anhalt,1
2025-02,52.32472993607255,14.49008975170433,Migration,Frankfurt (Oder),Stadt,Brandenburg,1
2025-02,52.54362698869285,12.369083817678527,Sicherheit,Premnitz,Stadt,Brandenburg,1
2025-02,52.81296376428183,7.60920034898339,Verkehr,Lahn,Gemeinde,Niedersachsen,1
2025-02,52.92062866121064,8.968189661015355,Digitalisierung,Emtinghausen,Gemeinde,Niedersachsen,1
2025-02,53.64780895376845,13.673981878909304,Wirtschaft,Galenbeck,Gemeinde,Mecklenburg-Vorpommern,1
2025-02,53.72613240403547,11.444456641211016,Umwelt,Lübstorf,Gemeinde,Mecklenburg-Vorpommern,1
2025-03,47.70943789557096,10.05687525341148,Verkehr,Isny im Allgäu,Stadt,Baden-Württemberg,1
2025-03,47.98909263289617,10.702337308466683,Digitalisierung,Jengen,Gemeinde,Bayern,1
2025-03,48.06524022257605,12.665306795913388,Sicherheit,Tyrlaching,Gemeinde,Bayern,1
2025-03,48.71263622169837,8.90265948260803,Wirtschaft,Grafenau,Gemeinde,Baden-Württemberg,1
2025-03,48.866814959400365,9.187996336251784,Wirtschaft,Kornwestheim,Stadt,Baden-Württemberg,1
2025-03,49.03543851501923,8.19224636772626,Wirtschaft,Wörth am Rhein,Stadt,Rheinland-Pfalz,1
2025-03,49.06922872621573,9.767383428053488,Wirtschaft,Michelbach an der Bilz,Gemeinde,Baden-Württemberg,1
2025-03,49.09772068360891,11.224317159801682,Wirtschaft,Thalmässing,Gemeinde,Bayern,1
2025-03,49.36472115662586,11.689093105012237,Sicherheit,Kastl,Gemeinde,Bayern,1
2025-03,49.40354850129945,9.289401913990488,Bildung,Schefflenz,Gemeinde,Baden-Württemberg,1
2025-03,50.25605037410836,11.838170788809853,Wirtschaft,Konradsreuth,Gemeinde,Bayern,1
2025-03,50.44774585420534,11.524552458283642,Sicherheit,Wurzbach,Stadt,Thüringen,1
2025-03,50.53007359403794,10.136055329247016,Verkehr,Fladungen,Stadt,Bayern,1
2025-03,50.6029029345916,7.606697579232936,Digitalisierung,Puderbach,Gemeinde,Rheinland-Pfalz,1
2025-03,50.61722984734243,8.791431745281926,Wirtschaft,Buseck,Gemeinde,Hessen,1
2025-03,50.86528525314488,11.625947878121773,Sicherheit,Sulza,Gemeinde,Thüringen,1
2025-03,50.98980203253095,13.28194845238487,Umwelt,Großschirma,Stadt,Sachsen,1
2025-03,51.02389448798025,11.507544209625854,Digitalisierung,Apolda,Stadt,Thüringen,1
2025-03,51.18737808652697,11.396560917397409,Sicherheit,Rastenberg,Stadt,Thüringen,1
2025-03,51.42883053297993,6.258598594929126,Sicherheit,Straelen,Stadt,Nordrhein-Westfalen,1
2025-03,51.74949960972321,6.617029939588667,Digitalisierung,Hamminkeln,Stadt,Nordrhein-Westfalen,1
2025-03,51.76060787669861,8.046313929270195,Gesundheit,Beckum,Stadt,Nordrhein-Westfalen,1
2025-03,51.76511057483658,8.539664170080014,Verkehr,Delbrück,Stadt,Nordrhein-Westfalen,1
2025-03,51.89594374302674,10.147602568220329,Verkehr,Seesen,Stadt,Niedersachsen,1
2025-03,51.91136303832232,14.031068736257147,Wirtschaft,Alt Zauche-Wußwerk,Gemeinde,Brandenburg,1
2025-03,52.12180911062997,8.95897353425478,Sicherheit,Kalletal,Gemeinde,Nordrhein-Westfalen,1
2025-03,52.47253653258692,6.819299205342505,Gesundheit,Getelo,Gemeinde,Niedersachsen,1
2025-03,53.16223354316443,13.751934806889803,Migration,Gerswalde,Gemeinde,Brandenburg,1
2025-03,53.99315355402106,10.358012419048332,Bildung,Krems II,Gemeinde,Schleswig-Holstein,1
2025-03,54.14065940411178,10.78343360718226,Gesundheit,Altenkrempe,Gemeinde,Schleswig-Holstein,1
2025-04,47.86528358843282,10.439612697067078,Gesundheit,Obergünzburg,Gemeinde,Bayern,1
2025-04,47.97930525102804,12.718907991366308,Migration,Taching a.See,Gemeinde,Bayern,1
2025-04,48.018329834123136,8.723704513024533,Bildung,Seitingen-Oberflacht,Gemeinde,Baden-Württemberg,1
2025-04,48.05091861414417,11.710878623790595,Verkehr,Hohenbrunn,Gemeinde,Bayern,1
2025-04,48.595542823186506,8.020391536874188,Migration,Renchen,Stadt,Baden-Württemberg,1
2025-04,48.96435228500322,10.180791682964715,Wirtschaft,Ellwangen (Jagst),Stadt,Baden-Württemberg,1
2025-04,49.06025131403776,9.706894703495657,Umwelt,Rosengarten,Gemeinde,Baden-Württemberg,1
2025-04,49.06922872621573,9.767383428053488,Umwelt,Michelbach an der Bilz,Gemeinde,Baden-Württemberg,1
2025-04,49.17035069628463,11.72091304606568,Digitalisierung,Parsberg,Stadt,Bayern,1
2025-04,49.43549663090058,11.08434605950649,Verkehr,Nürnberg,Stadt,Bayern,1
2025-04,49.75072811979239,10.004494385718669,Verkehr,Randersacker,Gemeinde,Bayern,1
2025-04,49.86222897598598,9.715840175113591,Umwelt,Birkenfeld,Gemeinde,Bayern,1
2025-04,50.01266353089871,8.785391902636285,Sicherheit,Dietzenbach,Stadt,Hessen,1
2025-04,50.09409039811341,8.409068404207407,Verkehr,Hofheim am Taunus,Stadt,Hessen,1
2025-04,50.573314991195424,7.082319215611799,Gesundheit,Grafschaft,Gemeinde,Rheinland-Pfalz,1
2025-04,50.67451387081398,11.995563712398788,Sicherheit,Weißendorf,Gemeinde,Thüringen,1
2025-04,50.713504447749656,10.428361804998044,Gesundheit,Schmalkalden,Stadt,Thüringen,1
2025-04,50.82153147910742,7.142088285348724,Verkehr,Troisdorf,Stadt,Nordrhein-Westfalen,1
2025-04,50.9091868615555,11.339102680745166,Umwelt,Buchfart,Gemeinde,Thüringen,1
2025-04,50.98328916878148,11.020143609326496,Bildung,Erfurt,Stadt,Thüringen,1
2025-04,51.118144386969085,10.839384275904088,Sicherheit,Herbsleben,Gemeinde,Thüringen,1
2025-04,51.1615280804762,7.066006899631727,Digitalisierung,Solingen,Stadt,Nordrhein-Westfalen,1
2025-04,51.30989034476405,10.340173176022828,Sicherheit,Dingelstädt,Stadt,Thüringen,1
2025-04,51.43911214555062,6.735444366685137,Umwelt,Duisburg,Stadt,Nordrhein-Westfalen,1
2025-04,51.7131967427333,12.474731106844644,Digitalisierung,Gräfenhainichen,Stadt,Sachsen-Anhalt,1
2025-04,52.16518678894195,9.266692359143224,Migration,Hessisch Oldendorf,Stadt,Niedersachsen,1
2025-04,52.85527673760208,8.737208576446168,Sicherheit,Bassum,Stadt,Niedersachsen,1
2025-04,53.114313687746446,9.368259268170291,Gesundheit,Rotenburg (Wümme),Stadt,Niedersachsen,1
2025-04,53.29761735078717,8.830257954469376,Migration,Hambergen,Gemeinde,Niedersachsen,1
2025-04,53.38855945191757,10.026450475944666,Sicherheit,Seevetal,Gemeinde,Niedersachsen,1
2025-04,53.48996566902296,9.31406021833005,Bildung,Kutenholz,Gemeinde,Niedersachsen,1
2025-04,53.50215517072642,11.288176458814265,Verkehr,Bandenitz,Gemeinde,Mecklenburg-Vorpommern,1
2025-04,53.91313946153659,12.84747735915728,Migration,Dargun,Stadt,Mecklenburg-Vorpommern,1
2025-04,54.12443386420473,9.649009767148234,Gesundheit,Remmels,Gemeinde,Schleswig-Holstein,1
2025-04,54.80562574385035,9.127025827632002,Wirtschaft,Holt,Gemeinde,Schleswig-Holstein,1
2025-05,47.58434787545965,12.871942364086744,Digitalisierung,Ramsau b.Berchtesgaden,Gemeinde,Bayern,1
2025-05,47.64944920646391,10.439619258433057,Wirtschaft,Oy-Mittelberg,Gemeinde,Bayern,1
2025-05,48.1665645392733,10.824740767618374,Verkehr,Untermeitingen,Gemeinde,Bayern,1
2025-05,48.22371520087404,8.797498966521845,Wirtschaft,Dotternhausen,Gemeinde,Baden-Württemberg,1
2025-05,48.23904362203705,9.092577911023444,Verkehr,Bitz,Gemeinde,Baden-Württemberg,1
2025-05,48.52322831609721,8.065773704019083,Migration,Oberkirch,Stadt,Baden-Württemberg,1
2025-05,48.77108837266667,13.791039728281865,Sicherheit,Pleckensteiner Wald,Gemeindefreies Gebiet,Bayern,1
2025-05,49.09122673338138,8.385787034655216,Migration,Eggenstein-Leopoldshafen,Gemeinde,Baden-Württemberg,1
2025-05,49.170997443664966,11.229143813115735,Migration,Hilpoltstein,Stadt,Bayern,1
2025-05,49.35104675696211,7.912418535265923,Umwelt,Elmstein,Gemeinde,Rheinland-Pfalz,1
2025-05,49.689384421477925,9.24637193122035,Umwelt,Miltenberg,Stadt,Bayern,1
2025-05,49.97288091544996,7.297828246484541,Gesundheit,Würrich,Gemeinde,Rheinland-Pfalz,1
2025-05,50.01533548513783,12.3157419091811,Digitalisierung,Waldsassen,Stadt,Bayern,1
2025-05,50.32603533774936,6.756464361163129,Gesundheit,Üxheim,Gemeinde,Rheinland-Pfalz,1
2025-05,50.34684663777459,11.834929099190648,Sicherheit,Köditz,Gemeinde,Bayern,1
2025-05,50.705299629517135,7.998591636494381,Migration,Derschen,Gemeinde,Rheinland-Pfalz,1
2025-05,50.98328916878148,11.020143609326496,Gesundheit,Erfurt,Stadt,Thüringen,1
2025-05,51.09194240657289,13.48271767209911,Migration,Klipphausen,Gemeinde,Sachsen,1
2025-05,51.25043045948755,7.168558438526127,Gesundheit,Wuppertal,Stadt,Nordrhein-Westfalen,1
2025-05,51.92142798606786,14.460693120776428,Sicherheit,Tauer,Gemeinde,Brandenburg,1
2025-05,51.98235955200921,8.777820716374842,Gesundheit,Lage,Stadt,Nordrhein-Westfalen,1
2025-05,52.51006201647161,11.365145003955824,Verkehr,Gardelegen,Stadt,Sachsen-Anhalt,1
2025-05,52.5156819187919,7.582787029002914,Wirtschaft,Andervenne,Gemeinde,Niedersachsen,1
2025-05,52.51666214130242,10.3943450407593,Umwelt,Müden (Aller),Gemeinde,Niedersachsen,1
2025-05,53.067060795492985,7.254014960308419,Wirtschaft,Rhede (Ems),Gemeinde,Niedersachsen,1
2025-05,53.1562345549133,13.205565828399273,Gesundheit,Fürstenberg/Havel,Stadt,Brandenburg,1
2025-05,53.21990428513603,12.933187608953077,Wirtschaft,Wustrow,Gemeinde,Mecklenburg-Vorpommern,1
2025-05,53.3919977221082,10.484648225026753,Umwelt,Schnakenbek,Gemeinde,Schleswig-Holstein,1
2025-05,53.52579401305009,11.891825074415715,Migration,Obere Warnow,Gemeinde,Mecklenburg-Vorpommern,1
2025-05,54.163755922247184,12.494420791061804,Verkehr,Marlow,Stadt,Mecklenburg-Vorpommern,1
2025-05,54.17668879797966,10.969397500594312,Bildung,Grömitz,Gemeinde,Schleswig-Holstein,1
2025-05,54.5997402431689,8.903581854270909,Wirtschaft,Reußenköge,Gemeinde,Schleswig-Holstein,1
2025-05,54.767490896281785,9.589872926477234,Gesundheit,Husby,Gemeinde,Schleswig-Holstein,1
2025-06,48.48871397530407,10.100803016788962,Umwelt,Langenau,Stadt,Baden-Württemberg,1
2025-06,48.54086744411092,8.325364597141084,Gesundheit,Baiersbronn,Gemeinde,Baden-Württemberg,1
2025-06,48.68455769561739,9.147032697665038,Migration,Leinfelden-Echterdingen,Stadt,Baden-Württemberg,1
2025-06,48.77429953938666,9.172204563511228,Wirtschaft,Stuttgart,Stadt,Baden-Württemberg,1
2025-06,49.15637820730269,9.439261093406405,Bildung,Bretzfeld,Gemeinde,Baden-Württemberg,1
2025-06,49.946867577358894,7.115072513807932,Bildung,Traben-Trarbach,Stadt,Rheinland-Pfalz,1
2025-06,50.17447946446686,6.885492252995188,Migration,Mehren,Gemeinde,Rheinland-Pfalz,1
2025-06,51.07288933113792,8.784199196329851,Verkehr,Frankenberg (Eder),Stadt,Hessen,1
2025-06,51.47007662784823,13.62237592120756,Bildung,Plessa,Gemeinde,Brandenburg,1
2025-06,52.20191241763332,13.927126078092344,Sicherheit,Storkow (Mark),Stadt,Brandenburg,1
2025-06,52.99720127651184,12.235326847463952,Bildung,Gumtow,Gemeinde,Brandenburg,1
2025-06,53.390319617503714,9.307736380616006,Wirtschaft,Anderlingen,Gemeinde,Niedersachsen,1
2025-06,54.00714042572002,9.762577384120227,Gesundheit,Fitzbek,Gemeinde,Schleswig-Holstein,1
2025-06,54.18804813832776,13.204575912161438,Digitalisierung,Sundhagen,Gemeinde,Mecklenburg-Vorpommern,1
